[{
  "_id": {
    "$oid": "6459da8d6aa09246a979ab90"
  },
  "name": "Wetherby services",
  "status": "unknown",
  "latitude": "53.944907",
  "longtitude": "-1.3714711",
  "__v": 0,
  "createdAt": {
    "$date": "2023-05-09T05:30:53.571Z"
  },
  "updatedAt": {
    "$date": "2024-09-27T07:13:10.510Z"
  },
  "user_id": "6456b12ab03217fd3b935d80"
},
{
  "_id": {
    "$oid": "6459da8d6aa09246a979ab9f"
  },
  "name": "Swansea Services M4 j47",
  "status": "inactive",
  "latitude": "51.678784",
  "longtitude": "-3.996459",
  "__v": 0,
  "createdAt": {
    "$date": "2023-05-09T05:30:53.572Z"
  },
  "updatedAt": {
    "$date": "2024-09-27T11:12:18.831Z"
  },
  "user_id": "6456b12ab03217fd3b935d80"
},
{
  "_id": {
    "$oid": "6459da8d6aa09246a979abb4"
  },
  "name": "Leicester Markfield services",
  "status": "unknown",
  "latitude": "52.695871",
  "longtitude": "-1.295636",
  "__v": 0,
  "createdAt": {
    "$date": "2023-05-09T05:30:53.575Z"
  },
  "updatedAt": {
    "$date": "2024-09-27T11:08:45.249Z"
  },
  "user_id": "6456b12ab03217fd3b935d80"
},
{
  "_id": {
    "$oid": "6459da8d6aa09246a979abc9"
  },
  "name": "Hartshead Moor services (eastbound)",
  "status": "unknown",
  "latitude": "53.711147",
  "longtitude": "-1.745684",
  "__v": 0,
  "createdAt": {
    "$date": "2023-05-09T05:30:53.577Z"
  },
  "updatedAt": {
    "$date": "2024-09-27T07:13:10.510Z"
  },
  "user_id": "6456b12ab03217fd3b935d80"
},
{
  "_id": {
    "$oid": "6459da8d6aa09246a979abcd"
  },
  "name": "Frankley services (southbound)",
  "status": "inactive",
  "latitude": "52.429546",
  "longtitude": "-2.016914",
  "__v": 0,
  "createdAt": {
    "$date": "2023-05-09T05:30:53.577Z"
  },
  "updatedAt": {
    "$date": "2024-09-27T10:20:09.422Z"
  },
  "user_id": "6456b12ab03217fd3b935d80"
},
{
  "_id": {
    "$oid": "6459da8d6aa09246a979abd5"
  },
  "name": "Derby services (eastbound) 1",
  "status": "unknown",
  "latitude": "52.868596",
  "longtitude": "-1.367739",
  "__v": 0,
  "createdAt": {
    "$date": "2023-05-09T05:30:53.577Z"
  },
  "updatedAt": {
    "$date": "2024-09-26T16:47:48.578Z"
  },
  "user_id": "6456b12ab03217fd3b935d80"
},
{
  "_id": {
    "$oid": "6459da8d6aa09246a979abe0"
  },
  "name": "Cardiff West services M4 j33",
  "status": "unknown",
  "latitude": "51.508717",
  "longtitude": "-3.30947",
  "__v": 0,
  "createdAt": {
    "$date": "2023-05-09T05:30:53.577Z"
  },
  "updatedAt": {
    "$date": "2024-09-27T11:08:45.249Z"
  },
  "user_id": "6456b12ab03217fd3b935d80"
},
{
  "_id": {
    "$oid": "6459da8d6aa09246a979abfb"
  },
  "name": "Binley services",
  "status": "inactive",
  "latitude": "52.388743",
  "longtitude": "-1.4395764",
  "__v": 0,
  "createdAt": {
    "$date": "2023-05-09T05:30:53.579Z"
  },
  "updatedAt": {
    "$date": "2024-09-27T11:12:19.691Z"
  },
  "user_id": "6456b12ab03217fd3b935d80"
},
{
  "_id": {
    "$oid": "6459da8d6aa09246a979ac0f"
  },
  "name": "Foston services",
  "status": "unknown",
  "latitude": "52.972233",
  "longtitude": "-0.72422951",
  "__v": 0,
  "createdAt": {
    "$date": "2023-05-09T05:30:53.580Z"
  },
  "updatedAt": {
    "$date": "2024-09-26T23:21:43.411Z"
  },
  "user_id": "65c5189673c8cfe604eebb1a"
},
{
  "_id": {
    "$oid": "6459da8d6aa09246a979ac15"
  },
  "name": "Ram Jam services",
  "status": "inactive",
  "latitude": "52.732145",
  "longtitude": "-0.59979424",
  "__v": 0,
  "createdAt": {
    "$date": "2023-05-09T05:30:53.580Z"
  },
  "updatedAt": {
    "$date": "2024-09-27T11:12:21.427Z"
  },
  "user_id": "6456b12ab03217fd3b935d80"
},
{
  "_id": {
    "$oid": "6459da8d6aa09246a979ac16"
  },
  "name": "Wisley services (northbound)",
  "status": "unknown",
  "latitude": "51.292488",
  "longtitude": "-0.49014419",
  "__v": 0,
  "createdAt": {
    "$date": "2023-05-09T05:30:53.580Z"
  },
  "updatedAt": {
    "$date": "2024-09-27T09:36:26.328Z"
  },
  "user_id": "6456b12ab03217fd3b935d80"
},
{
  "_id": {
    "$oid": "6459da8d6aa09246a979ac1b"
  },
  "name": "Hazelgrove services",
  "status": "unknown",
  "latitude": "51.030766",
  "longtitude": "-2.5724014",
  "__v": 0,
  "createdAt": {
    "$date": "2023-05-09T05:30:53.580Z"
  },
  "updatedAt": {
    "$date": "2024-09-27T11:08:45.249Z"
  },
  "user_id": "6456b12ab03217fd3b935d80"
},
{
  "_id": {
    "$oid": "6459da8d6aa09246a979ac2a"
  },
  "name": "Musselburgh services",
  "status": "inactive",
  "latitude": "55.925996",
  "longtitude": "-3.059971",
  "__v": 0,
  "createdAt": {
    "$date": "2023-05-09T05:30:53.581Z"
  },
  "updatedAt": {
    "$date": "2024-09-27T10:20:10.152Z"
  },
  "user_id": "6456b12ab03217fd3b935d80"
},
{
  "_id": {
    "$oid": "6459da8d6aa09246a979ac2e"
  },
  "name": "Petersfield services",
  "status": "unknown",
  "latitude": "51.008712",
  "longtitude": "-0.95165581",
  "__v": 0,
  "createdAt": {
    "$date": "2023-05-09T05:30:53.581Z"
  },
  "updatedAt": {
    "$date": "2024-09-26T19:03:23.133Z"
  },
  "user_id": "6456b12ab03217fd3b935d80"
},
{
  "_id": {
    "$oid": "6459da8d6aa09246a979ab99"
  },
  "name": "Toddington services (northbound)",
  "status": "inactive",
  "latitude": "51.945756",
  "longtitude": "-0.50139472",
  "__v": 0,
  "createdAt": {
    "$date": "2023-05-09T05:30:53.571Z"
  },
  "updatedAt": {
    "$date": "2024-09-27T11:12:22.096Z"
  },
  "user_id": "6456b12ab03217fd3b935d80"
},
{
  "_id": {
    "$oid": "6459da8d6aa09246a979abaa"
  },
  "name": "Oxford services",
  "status": "inactive",
  "latitude": "51.739151",
  "longtitude": "-1.09682",
  "__v": 0,
  "createdAt": {
    "$date": "2023-05-09T05:30:53.574Z"
  },
  "updatedAt": {
    "$date": "2024-09-27T09:35:32.472Z"
  },
  "user_id": "6456b12ab03217fd3b935d80"
},
{
  "_id": {
    "$oid": "6459da8d6aa09246a979abac"
  },
  "name": "Newport Pagnell services (southbound)",
  "status": "unknown",
  "latitude": "52.083898",
  "longtitude": "-0.748776",
  "__v": 0,
  "createdAt": {
    "$date": "2023-05-09T05:30:53.574Z"
  },
  "updatedAt": {
    "$date": "2024-09-24T15:54:34.082Z"
  },
  "user_id": "6456b12ab03217fd3b935d80"
},
{
  "_id": {
    "$oid": "6459da8d6aa09246a979abba"
  },
  "name": "Leicester Forest East services (northbound)",
  "status": "inactive",
  "latitude": "52.617799",
  "longtitude": "-1.205685",
  "__v": 0,
  "createdAt": {
    "$date": "2023-05-09T05:30:53.576Z"
  },
  "updatedAt": {
    "$date": "2024-09-27T11:12:24.060Z"
  },
  "user_id": "6456b12ab03217fd3b935d80"
},
{
  "_id": {
    "$oid": "6459da8d6aa09246a979abd7"
  },
  "name": "Sutton Scotney services (southbound)",
  "status": "unknown",
  "latitude": "51.158071",
  "longtitude": "-1.3442722",
  "__v": 0,
  "createdAt": {
    "$date": "2023-05-09T05:30:53.577Z"
  },
  "updatedAt": {
    "$date": "2024-09-26T16:42:15.771Z"
  },
  "user_id": "6456b12ab03217fd3b935d80"
},
{
  "_id": {
    "$oid": "6459da8d6aa09246a979abdc"
  },
  "name": "Chieveley services",
  "status": "unknown",
  "latitude": "51.450028",
  "longtitude": "-1.3104328",
  "__v": 0,
  "createdAt": {
    "$date": "2023-05-09T05:30:53.577Z"
  },
  "updatedAt": {
    "$date": "2024-09-26T10:17:19.453Z"
  },
  "user_id": "6456b12ab03217fd3b935d80"
},
{
  "_id": {
    "$oid": "6459da8d6aa09246a979abeb"
  },
  "name": "Annandale Water services Johnstonebridge ",
  "status": "inactive",
  "latitude": "55.219246",
  "longtitude": "-3.410493",
  "__v": 0,
  "createdAt": {
    "$date": "2023-05-09T05:30:53.578Z"
  },
  "updatedAt": {
    "$date": "2024-09-27T11:12:24.846Z"
  },
  "user_id": "6456b12ab03217fd3b935d80"
},
{
  "_id": {
    "$oid": "6459da8d6aa09246a979ac00"
  },
  "name": "Copdock services",
  "status": "unknown",
  "latitude": "52.038432",
  "longtitude": "1.0992712",
  "__v": 0,
  "createdAt": {
    "$date": "2023-05-09T05:30:53.579Z"
  },
  "updatedAt": {
    "$date": "2024-09-27T09:36:27.585Z"
  },
  "user_id": "6456b12ab03217fd3b935d80"
},
{
  "_id": {
    "$oid": "6459da8d6aa09246a979ac04"
  },
  "name": "Northop Hall services",
  "status": "unknown",
  "latitude": "53.197386",
  "longtitude": "-3.0896768",
  "__v": 0,
  "createdAt": {
    "$date": "2023-05-09T05:30:53.579Z"
  },
  "updatedAt": {
    "$date": "2024-09-26T16:42:15.771Z"
  },
  "user_id": "6456b12ab03217fd3b935d80"
},
{
  "_id": {
    "$oid": "6459da8d6aa09246a979abae"
  },
  "name": "Michaelwood services (southbound)",
  "status": "unknown",
  "latitude": "51.658298",
  "longtitude": "-2.424792",
  "__v": 0,
  "createdAt": {
    "$date": "2023-05-09T05:30:53.574Z"
  },
  "updatedAt": {
    "$date": "2024-09-27T11:08:49.112Z"
  },
  "user_id": "6456b12ab03217fd3b935d80"
},
{
  "_id": {
    "$oid": "6459da8d6aa09246a979abb3"
  },
  "name": "M4 j17 Chippenham Pit Stop services",
  "status": "inactive",
  "latitude": "51.513682",
  "longtitude": "-2.1099007",
  "__v": 0,
  "createdAt": {
    "$date": "2023-05-09T05:30:53.575Z"
  },
  "updatedAt": {
    "$date": "2024-09-27T10:20:11.779Z"
  },
  "user_id": "6456b12ab03217fd3b935d80"
},
{
  "_id": {
    "$oid": "6459da8d6aa09246a979abb8"
  },
  "name": "Leigh Delamere services (westbound)",
  "status": "unknown",
  "latitude": "51.510135",
  "longtitude": "-2.154939",
  "__v": 0,
  "createdAt": {
    "$date": "2023-05-09T05:30:53.575Z"
  },
  "updatedAt": {
    "$date": "2024-09-25T22:35:01.791Z"
  },
  "user_id": "6456b12ab03217fd3b935d80"
},
{
  "_id": {
    "$oid": "6459da8d6aa09246a979abe7"
  },
  "name": "Birchanger Green services M11 j8",
  "status": "unknown",
  "latitude": "51.870221",
  "longtitude": "0.19689292",
  "__v": 0,
  "createdAt": {
    "$date": "2023-05-09T05:30:53.578Z"
  },
  "updatedAt": {
    "$date": "2024-09-26T22:09:00.629Z"
  },
  "user_id": "6456b12ab03217fd3b935d80"
},
{
  "_id": {
    "$oid": "6459da8d6aa09246a979abee"
  },
  "name": "Derby services (eastbound)",
  "status": "inactive",
  "latitude": "52.868596",
  "longtitude": "-1.367739",
  "__v": 0,
  "createdAt": {
    "$date": "2023-05-09T05:30:53.578Z"
  },
  "updatedAt": {
    "$date": "2024-09-27T11:12:26.412Z"
  },
  "user_id": "6456b12ab03217fd3b935d80"
},
{
  "_id": {
    "$oid": "6459da8d6aa09246a979abf0"
  },
  "name": "Peartree services",
  "status": "unknown",
  "latitude": "51.794385",
  "longtitude": "-1.2839232",
  "__v": 0,
  "createdAt": {
    "$date": "2023-05-09T05:30:53.579Z"
  },
  "updatedAt": {
    "$date": "2024-09-26T11:34:17.165Z"
  },
  "user_id": "6456b12ab03217fd3b935d80"
},
{
  "_id": {
    "$oid": "6459da8d6aa09246a979abf6"
  },
  "name": "Northway services",
  "status": "inactive",
  "latitude": "52.028414",
  "longtitude": "-0.21380223",
  "__v": 0,
  "createdAt": {
    "$date": "2023-05-09T05:30:53.579Z"
  },
  "updatedAt": {
    "$date": "2024-09-27T10:20:12.157Z"
  },
  "user_id": "6456b12ab03217fd3b935d80"
},
{
  "_id": {
    "$oid": "6459da8d6aa09246a979ac0b"
  },
  "name": "Farlington services",
  "status": "unknown",
  "latitude": "50.836317",
  "longtitude": "-1.0414508",
  "__v": 0,
  "createdAt": {
    "$date": "2023-05-09T05:30:53.580Z"
  },
  "updatedAt": {
    "$date": "2024-09-26T11:34:18.273Z"
  },
  "user_id": "6456b12ab03217fd3b935d80"
},
{
  "_id": {
    "$oid": "6459da8d6aa09246a979ac0d"
  },
  "name": "Finavon services",
  "status": "unknown",
  "latitude": "56.705881",
  "longtitude": "-2.8264287",
  "__v": 0,
  "createdAt": {
    "$date": "2023-05-09T05:30:53.580Z"
  },
  "updatedAt": {
    "$date": "2024-09-26T19:24:52.300Z"
  },
  "user_id": "6456b12ab03217fd3b935d80"
},
{
  "_id": {
    "$oid": "6459da8d6aa09246a979ac1a"
  },
  "name": "Sourton Cross services",
  "status": "unknown",
  "latitude": "50.707839",
  "longtitude": "-4.0590432",
  "__v": 0,
  "createdAt": {
    "$date": "2023-05-09T05:30:53.580Z"
  },
  "updatedAt": {
    "$date": "2024-09-26T22:09:00.765Z"
  },
  "user_id": "6456b12ab03217fd3b935d80"
},
{
  "_id": {
    "$oid": "6459da8d6aa09246a979ac20"
  },
  "name": "Hogs Back services",
  "status": "inactive",
  "latitude": "51.225949",
  "longtitude": "-0.72587281",
  "__v": 0,
  "createdAt": {
    "$date": "2023-05-09T05:30:53.581Z"
  },
  "updatedAt": {
    "$date": "2024-09-27T10:20:12.520Z"
  },
  "user_id": "6456b12ab03217fd3b935d80"
},
{
  "_id": {
    "$oid": "6459da8d6aa09246a979ac29"
  },
  "name": "Markham Moor services (north-east)",
  "status": "unknown",
  "latitude": "53.254989",
  "longtitude": "-0.92093982",
  "__v": 0,
  "createdAt": {
    "$date": "2023-05-09T05:30:53.581Z"
  },
  "updatedAt": {
    "$date": "2024-09-26T16:47:52.276Z"
  },
  "user_id": "6456b12ab03217fd3b935d80"
},
{
  "_id": {
    "$oid": "6459da8d6aa09246a979ac3a"
  },
  "name": "Whitehouse services",
  "status": "inactive",
  "latitude": "50.738472",
  "longtitude": "-3.9563897",
  "__v": 0,
  "createdAt": {
    "$date": "2023-05-09T05:30:53.582Z"
  },
  "updatedAt": {
    "$date": "2024-09-27T11:12:28.389Z"
  },
  "user_id": "6456b12ab03217fd3b935d80"
},
{
  "_id": {
    "$oid": "6459da8d6aa09246a979ac3d"
  },
  "name": "Wittering services",
  "status": "unknown",
  "latitude": "52.598164",
  "longtitude": "-0.42133145",
  "__v": 0,
  "createdAt": {
    "$date": "2023-05-09T05:30:53.582Z"
  },
  "updatedAt": {
    "$date": "2024-09-26T23:22:14.700Z"
  },
  "user_id": "65c5189673c8cfe604eebb1a"
},
{
  "_id": {
    "$oid": "6459da8d6aa09246a979ab8d"
  },
  "name": "Woolley Edge services (southbound)",
  "status": "unknown",
  "latitude": "53.622185",
  "longtitude": "-1.546428",
  "__v": 0,
  "createdAt": {
    "$date": "2023-05-09T05:30:53.570Z"
  },
  "updatedAt": {
    "$date": "2024-09-26T19:24:52.300Z"
  },
  "user_id": "6456b12ab03217fd3b935d80"
},
{
  "_id": {
    "$oid": "6459da8d6aa09246a979aba3"
  },
  "name": "Stafford services (northbound)",
  "status": "unknown",
  "latitude": "52.884105",
  "longtitude": "-2.1719415",
  "__v": 0,
  "createdAt": {
    "$date": "2023-05-09T05:30:53.572Z"
  },
  "updatedAt": {
    "$date": "2024-09-26T16:47:52.276Z"
  },
  "user_id": "6456b12ab03217fd3b935d80"
},
{
  "_id": {
    "$oid": "6459da8d6aa09246a979abb2"
  },
  "name": "Medway services (eastbound)",
  "status": "inactive",
  "latitude": "51.341317",
  "longtitude": "0.605949",
  "__v": 0,
  "createdAt": {
    "$date": "2023-05-09T05:30:53.575Z"
  },
  "updatedAt": {
    "$date": "2024-09-27T10:20:13.805Z"
  },
  "user_id": "6456b12ab03217fd3b935d80"
},
{
  "_id": {
    "$oid": "6459da8d6aa09246a979abe3"
  },
  "name": "Burton-in-Kendal services",
  "status": "unknown",
  "latitude": "54.177201",
  "longtitude": "-2.735145",
  "__v": 0,
  "createdAt": {
    "$date": "2023-05-09T05:30:53.578Z"
  },
  "updatedAt": {
    "$date": "2024-09-26T14:41:52.520Z"
  },
  "user_id": "6456b12ab03217fd3b935d80"
},
{
  "_id": {
    "$oid": "6459da8d6aa09246a979abe9"
  },
  "name": "Birch services (eastbound)",
  "status": "inactive",
  "latitude": "53.567168",
  "longtitude": "-2.2341044",
  "__v": 0,
  "createdAt": {
    "$date": "2023-05-09T05:30:53.578Z"
  },
  "updatedAt": {
    "$date": "2024-09-27T10:20:14.092Z"
  },
  "user_id": "6456b12ab03217fd3b935d80"
},
{
  "_id": {
    "$oid": "6459da8d6aa09246a979abef"
  },
  "name": "Grantham North services / Gonerby A1",
  "status": "active",
  "latitude": "52.948086",
  "longtitude": "-0.679929",
  "__v": 0,
  "createdAt": {
    "$date": "2023-05-09T05:30:53.578Z"
  },
  "updatedAt": {
    "$date": "2024-09-27T11:54:15.413Z"
  },
  "user_id": "6456b12ab03217fd3b935d80"
},
{
  "_id": {
    "$oid": "6459da8d6aa09246a979ac25"
  },
  "name": "Kinmel Park services (eastbound)",
  "status": "inactive",
  "latitude": "53.270194",
  "longtitude": "-3.5199568",
  "__v": 0,
  "createdAt": {
    "$date": "2023-05-09T05:30:53.581Z"
  },
  "updatedAt": {
    "$date": "2024-09-27T11:12:30.289Z"
  },
  "user_id": "6456b12ab03217fd3b935d80"
},
{
  "_id": {
    "$oid": "6459da8d6aa09246a979ac38"
  },
  "name": "Warminster services",
  "status": "unknown",
  "latitude": "51.217323",
  "longtitude": "-2.1996327",
  "__v": 0,
  "createdAt": {
    "$date": "2023-05-09T05:30:53.581Z"
  },
  "updatedAt": {
    "$date": "2024-09-26T11:34:24.688Z"
  },
  "user_id": "6456b12ab03217fd3b935d80"
},
{
  "_id": {
    "$oid": "6459da8d6aa09246a979ac3e"
  },
  "name": "Wynyard Park services",
  "status": "unknown",
  "latitude": "54.628366",
  "longtitude": "-1.3071097",
  "__v": 0,
  "createdAt": {
    "$date": "2023-05-09T05:30:53.582Z"
  },
  "updatedAt": {
    "$date": "2024-09-26T19:03:28.071Z"
  },
  "user_id": "6456b12ab03217fd3b935d80"
},
{
  "_id": {
    "$oid": "645be31655f964209a3c7ccf"
  },
  "name": "DVSA Newhaven Harbour",
  "status": "unknown",
  "latitude": "50.79477778",
  "longtitude": "0.05419444",
  "createdAt": {
    "$date": "2023-05-10T18:31:50.312Z"
  },
  "updatedAt": {
    "$date": "2024-09-26T16:42:21.855Z"
  },
  "__v": 0,
  "user_id": "6456b12ab03217fd3b935d80"
},
{
  "_id": {
    "$oid": "645be56055f964209a3c7cee"
  },
  "name": "DVSA Halesowen M5 j3",
  "status": "unknown",
  "latitude": "52.44838889",
  "longtitude": "-2.01619444",
  "createdAt": {
    "$date": "2023-05-10T18:41:36.726Z"
  },
  "updatedAt": {
    "$date": "2024-09-26T11:34:25.405Z"
  },
  "__v": 0,
  "user_id": "6456b12ab03217fd3b935d80"
},
{
  "_id": {
    "$oid": "645be70c55f964209a3c7d03"
  },
  "name": "DVSA Todhills / Carlisle ",
  "status": "unknown",
  "latitude": "54.94811111",
  "longtitude": "-2.97608333",
  "createdAt": {
    "$date": "2023-05-10T18:48:44.327Z"
  },
  "updatedAt": {
    "$date": "2024-09-27T09:54:31.385Z"
  },
  "__v": 0,
  "user_id": "6456b12ab03217fd3b935d80"
},
{
  "_id": {
    "$oid": "645be93d55f964209a3c7d15"
  },
  "name": "DVSA Stafford M6 northbound ",
  "status": "active",
  "latitude": "52.81308333",
  "longtitude": "-2.15602778",
  "createdAt": {
    "$date": "2023-05-10T18:58:05.458Z"
  },
  "updatedAt": {
    "$date": "2024-09-27T11:54:21.299Z"
  },
  "__v": 0,
  "user_id": "6456b12ab03217fd3b935d80"
},
{
  "_id": {
    "$oid": "645bea8155f964209a3c7d2a"
  },
  "name": "DVSA Abingdon A34",
  "status": "inactive",
  "latitude": "51.66966667",
  "longtitude": "-1.31344444",
  "createdAt": {
    "$date": "2023-05-10T19:03:29.789Z"
  },
  "updatedAt": {
    "$date": "2024-09-27T11:12:32.845Z"
  },
  "__v": 0,
  "user_id": "6456b12ab03217fd3b935d80"
},
{
  "_id": {
    "$oid": "645beb4c55f964209a3c7d37"
  },
  "name": "DVSA Beddingham",
  "status": "unknown",
  "latitude": "50.85288889",
  "longtitude": "0.05838889",
  "createdAt": {
    "$date": "2023-05-10T19:06:52.092Z"
  },
  "updatedAt": {
    "$date": "2024-09-26T22:09:01.920Z"
  },
  "__v": 0,
  "user_id": "6456b12ab03217fd3b935d80"
},
{
  "_id": {
    "$oid": "645bed0855f964209a3c7d53"
  },
  "name": "DVSA Dagenham",
  "status": "unknown",
  "latitude": "51.53211111",
  "longtitude": "0.13325",
  "createdAt": {
    "$date": "2023-05-10T19:14:16.510Z"
  },
  "updatedAt": {
    "$date": "2024-09-26T00:11:48.775Z"
  },
  "__v": 0,
  "user_id": "6456b12ab03217fd3b935d80"
},
{
  "_id": {
    "$oid": "645bed7155f964209a3c7d5a"
  },
  "name": "DVSA Holyhead",
  "status": "inactive",
  "latitude": "53.27708333",
  "longtitude": "-4.51780556",
  "createdAt": {
    "$date": "2023-05-10T19:16:01.166Z"
  },
  "updatedAt": {
    "$date": "2024-09-27T10:20:15.261Z"
  },
  "__v": 0,
  "user_id": "6456b12ab03217fd3b935d80"
},
{
  "_id": {
    "$oid": "645bf20a55f964209a3c7d8e"
  },
  "name": "DVSA John's Cross",
  "status": "unknown",
  "latitude": "50.9625286",
  "longtitude": "0.4833877",
  "createdAt": {
    "$date": "2023-05-10T19:35:38.365Z"
  },
  "updatedAt": {
    "$date": "2024-09-26T16:47:54.943Z"
  },
  "__v": 0,
  "user_id": "6456b12ab03217fd3b935d80"
},
{
  "_id": {
    "$oid": "645bf2c455f964209a3c7d94"
  },
  "name": "DVSA Risby",
  "status": "active",
  "latitude": "52.26363889",
  "longtitude": "0.6185",
  "createdAt": {
    "$date": "2023-05-10T19:38:44.913Z"
  },
  "updatedAt": {
    "$date": "2024-09-27T11:56:19.482Z"
  },
  "__v": 0,
  "user_id": "6456b12ab03217fd3b935d80"
},
{
  "_id": {
    "$oid": "645bf40a55f964209a3c7da3"
  },
  "name": "DVSA Sawtry",
  "status": "unknown",
  "latitude": "52.44697222",
  "longtitude": "-0.27575",
  "createdAt": {
    "$date": "2023-05-10T19:44:10.643Z"
  },
  "updatedAt": {
    "$date": "2024-09-27T11:33:49.319Z"
  },
  "__v": 0,
  "user_id": "6456b12ab03217fd3b935d80"
},
{
  "_id": {
    "$oid": "645bf43c55f964209a3c7da6"
  },
  "name": "DVSA Sandy",
  "status": "unknown",
  "latitude": "52.10983333",
  "longtitude": "-0.28316667",
  "createdAt": {
    "$date": "2023-05-10T19:45:00.955Z"
  },
  "updatedAt": {
    "$date": "2024-09-27T00:02:45.169Z"
  },
  "__v": 0,
  "user_id": "65c5189673c8cfe604eebb1a"
},
{
  "_id": {
    "$oid": "645bf4f855f964209a3c7daf"
  },
  "name": "DVSA Scotch Corner",
  "status": "unknown",
  "latitude": "54.44425",
  "longtitude": "-1.6701112",
  "createdAt": {
    "$date": "2023-05-10T19:48:08.731Z"
  },
  "updatedAt": {
    "$date": "2024-09-27T07:13:13.862Z"
  },
  "__v": 0,
  "user_id": "6456b12ab03217fd3b935d80"
},
{
  "_id": {
    "$oid": "645bf59a55f964209a3c7db5"
  },
  "name": "DVSA Kidderminster",
  "status": "inactive",
  "latitude": "52.3614375",
  "longtitude": "-2.2366875",
  "createdAt": {
    "$date": "2023-05-10T19:50:50.583Z"
  },
  "updatedAt": {
    "$date": "2024-09-27T11:12:35.699Z"
  },
  "__v": 0,
  "user_id": "6456b12ab03217fd3b935d80"
},
{
  "_id": {
    "$oid": "645bf70255f964209a3c7dd0"
  },
  "name": "Holyhead docks ",
  "status": "inactive",
  "latitude": "53.3091858366983",
  "longtitude": "-4.62902759",
  "createdAt": {
    "$date": "2023-05-10T19:56:50.428Z"
  },
  "updatedAt": {
    "$date": "2024-09-27T11:12:36.533Z"
  },
  "__v": 0,
  "user_id": "6456b12ab03217fd3b935d80"
},
{
  "_id": {
    "$oid": "645de4a780548709fb8e764a"
  },
  "name": "DVSA Prees Heath A41 Midway Whitchurch ",
  "status": "unknown",
  "latitude": "52.937551",
  "longtitude": "-2.660390",
  "createdAt": {
    "$date": "2023-05-12T07:03:03.959Z"
  },
  "updatedAt": {
    "$date": "2024-09-26T19:24:53.973Z"
  },
  "__v": 0,
  "user_id": "6456b12ab03217fd3b935d80"
},
{
  "_id": {
    "$oid": "6459da8d6aa09246a979ab97"
  },
  "name": "Todhills rest area (northbound)",
  "status": "unknown",
  "latitude": "54.950054",
  "longtitude": "-2.9780942",
  "__v": 0,
  "createdAt": {
    "$date": "2023-05-09T05:30:53.571Z"
  },
  "updatedAt": {
    "$date": "2024-09-27T09:54:33.264Z"
  },
  "user_id": "6456b12ab03217fd3b935d80"
},
{
  "_id": {
    "$oid": "6459da8d6aa09246a979abb7"
  },
  "name": "London Gateway services",
  "status": "unknown",
  "latitude": "51.629967",
  "longtitude": "-0.263962",
  "__v": 0,
  "createdAt": {
    "$date": "2023-05-09T05:30:53.575Z"
  },
  "updatedAt": {
    "$date": "2024-09-27T07:13:13.862Z"
  },
  "user_id": "6456b12ab03217fd3b935d80"
},
{
  "_id": {
    "$oid": "6459da8d6aa09246a979abc1"
  },
  "name": "Keele services (northbound)",
  "status": "unknown",
  "latitude": "52.992885",
  "longtitude": "-2.287377",
  "__v": 0,
  "createdAt": {
    "$date": "2023-05-09T05:30:53.576Z"
  },
  "updatedAt": {
    "$date": "2024-09-27T11:08:52.170Z"
  },
  "user_id": "6456b12ab03217fd3b935d80"
},
{
  "_id": {
    "$oid": "6459da8d6aa09246a979abd0"
  },
  "name": "Ferrybridge services",
  "status": "unknown",
  "latitude": "53.696861",
  "longtitude": "-1.2663886",
  "__v": 0,
  "createdAt": {
    "$date": "2023-05-09T05:30:53.577Z"
  },
  "updatedAt": {
    "$date": "2024-09-26T11:34:33.941Z"
  },
  "user_id": "6456b12ab03217fd3b935d80"
},
{
  "_id": {
    "$oid": "6459da8d6aa09246a979abd4"
  },
  "name": "Derby services (westbound) 1",
  "status": "unknown",
  "latitude": "52.867074",
  "longtitude": "-1.369954",
  "__v": 0,
  "createdAt": {
    "$date": "2023-05-09T05:30:53.577Z"
  },
  "updatedAt": {
    "$date": "2024-09-26T16:47:55.593Z"
  },
  "user_id": "6456b12ab03217fd3b935d80"
},
{
  "_id": {
    "$oid": "6459da8d6aa09246a979abd9"
  },
  "name": "Monmouth services (eastbound)",
  "status": "inactive",
  "latitude": "51.773138",
  "longtitude": "-2.8150347",
  "__v": 0,
  "createdAt": {
    "$date": "2023-05-09T05:30:53.577Z"
  },
  "updatedAt": {
    "$date": "2024-09-27T11:12:38.556Z"
  },
  "user_id": "6456b12ab03217fd3b935d80"
},
{
  "_id": {
    "$oid": "6459da8d6aa09246a979abe4"
  },
  "name": "Bridgwater services",
  "status": "unknown",
  "latitude": "51.104565",
  "longtitude": "-2.995721",
  "__v": 0,
  "createdAt": {
    "$date": "2023-05-09T05:30:53.578Z"
  },
  "updatedAt": {
    "$date": "2024-09-26T11:34:35.431Z"
  },
  "user_id": "6456b12ab03217fd3b935d80"
},
{
  "_id": {
    "$oid": "6459da8d6aa09246a979abe6"
  },
  "name": "Old Inns services",
  "status": "unknown",
  "latitude": "55.967841",
  "longtitude": "-3.9696083",
  "__v": 0,
  "createdAt": {
    "$date": "2023-05-09T05:30:53.578Z"
  },
  "updatedAt": {
    "$date": "2024-09-27T11:08:53.205Z"
  },
  "user_id": "6456b12ab03217fd3b935d80"
},
{
  "_id": {
    "$oid": "6459da8d6aa09246a979ac01"
  },
  "name": "Crossbush services",
  "status": "unknown",
  "latitude": "50.842753",
  "longtitude": "-0.54150313",
  "__v": 0,
  "createdAt": {
    "$date": "2023-05-09T05:30:53.579Z"
  },
  "updatedAt": {
    "$date": "2024-09-26T11:34:35.431Z"
  },
  "user_id": "6456b12ab03217fd3b935d80"
},
{
  "_id": {
    "$oid": "6459da8d6aa09246a979ac24"
  },
  "name": "Kinmel Park services (westbound)",
  "status": "unknown",
  "latitude": "53.267817",
  "longtitude": "-3.5177198",
  "__v": 0,
  "createdAt": {
    "$date": "2023-05-09T05:30:53.581Z"
  },
  "updatedAt": {
    "$date": "2024-09-27T11:09:55.685Z"
  },
  "user_id": "6456b12ab03217fd3b935d80"
},
{
  "_id": {
    "$oid": "6459da8d6aa09246a979ac33"
  },
  "name": "Thorpe on the Hill services",
  "status": "unknown",
  "latitude": "53.177087",
  "longtitude": "-0.62595516",
  "__v": 0,
  "createdAt": {
    "$date": "2023-05-09T05:30:53.581Z"
  },
  "updatedAt": {
    "$date": "2024-09-26T14:41:58.202Z"
  },
  "user_id": "6456b12ab03217fd3b935d80"
},
{
  "_id": {
    "$oid": "6459da8d6aa09246a979ab92"
  },
  "name": "Washington services (southbound)",
  "status": "unknown",
  "latitude": "54.891007",
  "longtitude": "-1.5586565",
  "__v": 0,
  "createdAt": {
    "$date": "2023-05-09T05:30:53.571Z"
  },
  "updatedAt": {
    "$date": "2024-09-25T20:11:38.843Z"
  },
  "user_id": "6456b12ab03217fd3b935d80"
},
{
  "_id": {
    "$oid": "6459da8d6aa09246a979ab9b"
  },
  "name": "Tiverton services M5 j27",
  "status": "active",
  "latitude": "50.91623",
  "longtitude": "-3.3540494",
  "__v": 0,
  "createdAt": {
    "$date": "2023-05-09T05:30:53.572Z"
  },
  "updatedAt": {
    "$date": "2024-09-27T11:56:21.349Z"
  },
  "user_id": "6456b12ab03217fd3b935d80"
},
{
  "_id": {
    "$oid": "6459da8d6aa09246a979aba8"
  },
  "name": "Reading services (eastbound)",
  "status": "unknown",
  "latitude": "51.424656",
  "longtitude": "-1.031492",
  "__v": 0,
  "createdAt": {
    "$date": "2023-05-09T05:30:53.573Z"
  },
  "updatedAt": {
    "$date": "2024-09-27T11:08:52.928Z"
  },
  "user_id": "6456b12ab03217fd3b935d80"
},
{
  "_id": {
    "$oid": "6459da8d6aa09246a979ac08"
  },
  "name": "Emsworth services (eastbound)",
  "status": "inactive",
  "latitude": "50.853366",
  "longtitude": "-0.94480544",
  "__v": 0,
  "createdAt": {
    "$date": "2023-05-09T05:30:53.580Z"
  },
  "updatedAt": {
    "$date": "2024-09-27T10:20:17.292Z"
  },
  "user_id": "6456b12ab03217fd3b935d80"
},
{
  "_id": {
    "$oid": "6459da8d6aa09246a979ac0a"
  },
  "name": "Family Farm services (southbound)",
  "status": "unknown",
  "latitude": "51.853278",
  "longtitude": "-1.2234226",
  "__v": 0,
  "createdAt": {
    "$date": "2023-05-09T05:30:53.580Z"
  },
  "updatedAt": {
    "$date": "2024-09-26T00:11:52.075Z"
  },
  "user_id": "6456b12ab03217fd3b935d80"
},
{
  "_id": {
    "$oid": "6459da8d6aa09246a979ac17"
  },
  "name": "Wisley services (southbound)",
  "status": "unknown",
  "latitude": "51.294051",
  "longtitude": "-0.48763901",
  "__v": 0,
  "createdAt": {
    "$date": "2023-05-09T05:30:53.580Z"
  },
  "updatedAt": {
    "$date": "2024-09-25T16:31:28.663Z"
  },
  "user_id": "6456b12ab03217fd3b935d80"
},
{
  "_id": {
    "$oid": "6459da8d6aa09246a979ab98"
  },
  "name": "Todhills rest area (southbound)",
  "status": "unknown",
  "latitude": "54.9525",
  "longtitude": "-2.9804116",
  "__v": 0,
  "createdAt": {
    "$date": "2023-05-09T05:30:53.571Z"
  },
  "updatedAt": {
    "$date": "2024-09-27T09:54:34.633Z"
  },
  "user_id": "6456b12ab03217fd3b935d80"
},
{
  "_id": {
    "$oid": "6459da8d6aa09246a979aba6"
  },
  "name": "Severn View services",
  "status": "unknown",
  "latitude": "51.60294",
  "longtitude": "-2.618265",
  "__v": 0,
  "createdAt": {
    "$date": "2023-05-09T05:30:53.572Z"
  },
  "updatedAt": {
    "$date": "2024-09-26T22:09:03.871Z"
  },
  "user_id": "6456b12ab03217fd3b935d80"
},
{
  "_id": {
    "$oid": "6459da8d6aa09246a979abc4"
  },
  "name": "Hilton Park services (northbound)",
  "status": "unknown",
  "latitude": "52.641953",
  "longtitude": "-2.056299",
  "__v": 0,
  "createdAt": {
    "$date": "2023-05-09T05:30:53.576Z"
  },
  "updatedAt": {
    "$date": "2024-09-27T09:36:30.203Z"
  },
  "user_id": "6456b12ab03217fd3b935d80"
},
{
  "_id": {
    "$oid": "6459da8d6aa09246a979abc7"
  },
  "name": "Heston services (eastbound)",
  "status": "unknown",
  "latitude": "51.488298",
  "longtitude": "-0.39032",
  "__v": 0,
  "createdAt": {
    "$date": "2023-05-09T05:30:53.576Z"
  },
  "updatedAt": {
    "$date": "2024-09-25T20:11:38.843Z"
  },
  "user_id": "6456b12ab03217fd3b935d80"
},
{
  "_id": {
    "$oid": "6459da8d6aa09246a979abd8"
  },
  "name": "Monmouth services (westbound)",
  "status": "unknown",
  "latitude": "51.772179",
  "longtitude": "-2.8119823",
  "__v": 0,
  "createdAt": {
    "$date": "2023-05-09T05:30:53.577Z"
  },
  "updatedAt": {
    "$date": "2024-09-26T11:34:45.102Z"
  },
  "user_id": "6456b12ab03217fd3b935d80"
},
{
  "_id": {
    "$oid": "6459da8d6aa09246a979abea"
  },
  "name": "Cobham services",
  "status": "inactive",
  "latitude": "51.305388",
  "longtitude": "-0.408828",
  "__v": 0,
  "createdAt": {
    "$date": "2023-05-09T05:30:53.578Z"
  },
  "updatedAt": {
    "$date": "2024-09-27T11:12:42.536Z"
  },
  "user_id": "6456b12ab03217fd3b935d80"
},
{
  "_id": {
    "$oid": "6459da8d6aa09246a979abf1"
  },
  "name": "Scotch Corner services",
  "status": "unknown",
  "latitude": "54.443385",
  "longtitude": "-1.66662",
  "__v": 0,
  "createdAt": {
    "$date": "2023-05-09T05:30:53.579Z"
  },
  "updatedAt": {
    "$date": "2024-09-27T09:36:30.203Z"
  },
  "user_id": "6456b12ab03217fd3b935d80"
},
{
  "_id": {
    "$oid": "6459da8d6aa09246a979ac02"
  },
  "name": "Darrington services",
  "status": "unknown",
  "latitude": "53.663438",
  "longtitude": "-1.2657981",
  "__v": 0,
  "createdAt": {
    "$date": "2023-05-09T05:30:53.579Z"
  },
  "updatedAt": {
    "$date": "2024-09-26T10:17:24.134Z"
  },
  "user_id": "6456b12ab03217fd3b935d80"
},
{
  "_id": {
    "$oid": "6459da8d6aa09246a979ac03"
  },
  "name": "Milton Heights services",
  "status": "unknown",
  "latitude": "51.618816",
  "longtitude": "-1.3002209",
  "__v": 0,
  "createdAt": {
    "$date": "2023-05-09T05:30:53.579Z"
  },
  "updatedAt": {
    "$date": "2024-09-27T11:08:53.433Z"
  },
  "user_id": "6456b12ab03217fd3b935d80"
},
{
  "_id": {
    "$oid": "6459da8d6aa09246a979ac13"
  },
  "name": "Pyecombe services (north)",
  "status": "inactive",
  "latitude": "50.901642",
  "longtitude": "-0.18054351",
  "__v": 0,
  "createdAt": {
    "$date": "2023-05-09T05:30:53.580Z"
  },
  "updatedAt": {
    "$date": "2024-09-27T11:12:44.753Z"
  },
  "user_id": "6456b12ab03217fd3b935d80"
},
{
  "_id": {
    "$oid": "6459da8d6aa09246a979ac1c"
  },
  "name": "Stockbridge services",
  "status": "unknown",
  "latitude": "50.828489",
  "longtitude": "-0.78708082",
  "__v": 0,
  "createdAt": {
    "$date": "2023-05-09T05:30:53.580Z"
  },
  "updatedAt": {
    "$date": "2024-09-24T20:27:17.987Z"
  },
  "user_id": "6456b12ab03217fd3b935d80"
},
{
  "_id": {
    "$oid": "6459da8d6aa09246a979ac21"
  },
  "name": "Ilminster services",
  "status": "unknown",
  "latitude": "50.93351",
  "longtitude": "-2.9386644",
  "__v": 0,
  "createdAt": {
    "$date": "2023-05-09T05:30:53.581Z"
  },
  "updatedAt": {
    "$date": "2024-09-26T10:17:24.134Z"
  },
  "user_id": "6456b12ab03217fd3b935d80"
},
{
  "_id": {
    "$oid": "6459da8d6aa09246a979ac2d"
  },
  "name": "North Muskham services",
  "status": "inactive",
  "latitude": "53.12974",
  "longtitude": "-0.81158549",
  "__v": 0,
  "createdAt": {
    "$date": "2023-05-09T05:30:53.581Z"
  },
  "updatedAt": {
    "$date": "2024-09-27T10:53:55.109Z"
  },
  "user_id": "6456b12ab03217fd3b935d80"
},
{
  "_id": {
    "$oid": "6459da8d6aa09246a979ab95"
  },
  "name": "Trowell services (northbound)",
  "status": "unknown",
  "latitude": "52.961282",
  "longtitude": "-1.269307",
  "__v": 0,
  "createdAt": {
    "$date": "2023-05-09T05:30:53.571Z"
  },
  "updatedAt": {
    "$date": "2024-09-27T11:08:53.415Z"
  },
  "user_id": "6456b12ab03217fd3b935d80"
},
{
  "_id": {
    "$oid": "6459da8d6aa09246a979aba0"
  },
  "name": "Strensham services (northbound)",
  "status": "unknown",
  "latitude": "52.064543",
  "longtitude": "-2.154415",
  "__v": 0,
  "createdAt": {
    "$date": "2023-05-09T05:30:53.572Z"
  },
  "updatedAt": {
    "$date": "2024-09-26T22:09:03.871Z"
  },
  "user_id": "6456b12ab03217fd3b935d80"
},
{
  "_id": {
    "$oid": "6459da8d6aa09246a979aba2"
  },
  "name": "Stirling services",
  "status": "unknown",
  "latitude": "56.076516",
  "longtitude": "-3.922237",
  "__v": 0,
  "createdAt": {
    "$date": "2023-05-09T05:30:53.572Z"
  },
  "updatedAt": {
    "$date": "2024-09-26T11:34:48.876Z"
  },
  "user_id": "6456b12ab03217fd3b935d80"
},
{
  "_id": {
    "$oid": "6459da8d6aa09246a979aba4"
  },
  "name": "Southwaite services (northbound)",
  "status": "unknown",
  "latitude": "54.795914",
  "longtitude": "-2.870811",
  "__v": 0,
  "createdAt": {
    "$date": "2023-05-09T05:30:53.572Z"
  },
  "updatedAt": {
    "$date": "2024-09-27T09:54:39.922Z"
  },
  "user_id": "6456b12ab03217fd3b935d80"
},
{
  "_id": {
    "$oid": "6459da8d6aa09246a979abf3"
  },
  "name": "Kate's Cabin services",
  "status": "unknown",
  "latitude": "52.543867",
  "longtitude": "-0.33076733",
  "__v": 0,
  "createdAt": {
    "$date": "2023-05-09T05:30:53.579Z"
  },
  "updatedAt": {
    "$date": "2024-09-27T11:08:53.433Z"
  },
  "user_id": "6456b12ab03217fd3b935d80"
},
{
  "_id": {
    "$oid": "6459da8d6aa09246a979ac06"
  },
  "name": "Hickstead services",
  "status": "inactive",
  "latitude": "50.966944",
  "longtitude": "-0.19252092",
  "__v": 0,
  "createdAt": {
    "$date": "2023-05-09T05:30:53.579Z"
  },
  "updatedAt": {
    "$date": "2024-09-27T11:12:47.094Z"
  },
  "user_id": "6456b12ab03217fd3b935d80"
},
{
  "_id": {
    "$oid": "6459da8d6aa09246a979ac10"
  },
  "name": "Gate services",
  "status": "unknown",
  "latitude": "51.289543",
  "longtitude": "0.99468917",
  "__v": 0,
  "createdAt": {
    "$date": "2023-05-09T05:30:53.580Z"
  },
  "updatedAt": {
    "$date": "2024-09-26T11:34:52.664Z"
  },
  "user_id": "6456b12ab03217fd3b935d80"
},
{
  "_id": {
    "$oid": "6459da8d6aa09246a979ac23"
  },
  "name": "Kettering services (eastbound)",
  "status": "unknown",
  "latitude": "52.378775",
  "longtitude": "-0.7269149",
  "__v": 0,
  "createdAt": {
    "$date": "2023-05-09T05:30:53.581Z"
  },
  "updatedAt": {
    "$date": "2024-09-26T19:24:57.142Z"
  },
  "user_id": "6456b12ab03217fd3b935d80"
},
{
  "_id": {
    "$oid": "6459da8d6aa09246a979ac2c"
  },
  "name": "Newmarket (1000 Guineas) services",
  "status": "inactive",
  "latitude": "52.249397",
  "longtitude": "0.3628572",
  "__v": 0,
  "createdAt": {
    "$date": "2023-05-09T05:30:53.581Z"
  },
  "updatedAt": {
    "$date": "2024-09-27T10:20:18.834Z"
  },
  "user_id": "6456b12ab03217fd3b935d80"
},
{
  "_id": {
    "$oid": "645be34f55f964209a3c7cd3"
  },
  "name": "DVSA Newport Pagnell",
  "status": "unknown",
  "latitude": "52.05411111",
  "longtitude": "-0.69619444",
  "createdAt": {
    "$date": "2023-05-10T18:32:47.909Z"
  },
  "updatedAt": {
    "$date": "2024-09-26T11:34:54.513Z"
  },
  "__v": 0,
  "user_id": "6456b12ab03217fd3b935d80"
},
{
  "_id": {
    "$oid": "645be39a55f964209a3c7cd7"
  },
  "name": "DVSA Perry Bar",
  "status": "unknown",
  "latitude": "52.53383333",
  "longtitude": "-1.90172222",
  "createdAt": {
    "$date": "2023-05-10T18:34:02.543Z"
  },
  "updatedAt": {
    "$date": "2024-09-26T14:42:00.374Z"
  },
  "__v": 0,
  "user_id": "6456b12ab03217fd3b935d80"
},
{
  "_id": {
    "$oid": "645be65555f964209a3c7cfa"
  },
  "name": "DVSA Tankersley",
  "status": "unknown",
  "latitude": "53.48886111",
  "longtitude": "-1.4901388",
  "createdAt": {
    "$date": "2023-05-10T18:45:41.471Z"
  },
  "updatedAt": {
    "$date": "2024-09-27T11:08:53.252Z"
  },
  "__v": 0,
  "user_id": "6456b12ab03217fd3b935d80"
},
{
  "_id": {
    "$oid": "645be8bf55f964209a3c7d0f"
  },
  "name": "DVSA Tweedmouth",
  "status": "unknown",
  "latitude": "55.76327778",
  "longtitude": "-2.01622222",
  "createdAt": {
    "$date": "2023-05-10T18:55:59.745Z"
  },
  "updatedAt": {
    "$date": "2024-09-26T11:34:56.036Z"
  },
  "__v": 0,
  "user_id": "6456b12ab03217fd3b935d80"
},
{
  "_id": {
    "$oid": "645be97955f964209a3c7d1b"
  },
  "name": "DVSA Livingston",
  "status": "unknown",
  "latitude": "55.90586111",
  "longtitude": "-3.49836111",
  "createdAt": {
    "$date": "2023-05-10T18:59:05.455Z"
  },
  "updatedAt": {
    "$date": "2024-09-26T11:34:57.094Z"
  },
  "__v": 0,
  "user_id": "6456b12ab03217fd3b935d80"
},
{
  "_id": {
    "$oid": "645be9b355f964209a3c7d1e"
  },
  "name": "DVSA Beattock A74(M) A167",
  "status": "inactive",
  "latitude": "55.42591667",
  "longtitude": "-3.5994723",
  "createdAt": {
    "$date": "2023-05-10T19:00:03.478Z"
  },
  "updatedAt": {
    "$date": "2024-09-27T11:11:55.231Z"
  },
  "__v": 0,
  "user_id": "6456b12ab03217fd3b935d80"
},
{
  "_id": {
    "$oid": "645beb0d55f964209a3c7d33"
  },
  "name": "DVSA Swindon / Badbury M4 j15",
  "status": "inactive",
  "latitude": "51.52830556",
  "longtitude": "-1.72641667",
  "createdAt": {
    "$date": "2023-05-10T19:05:49.259Z"
  },
  "updatedAt": {
    "$date": "2024-09-27T11:12:49.577Z"
  },
  "__v": 0,
  "user_id": "6456b12ab03217fd3b935d80"
},
{
  "_id": {
    "$oid": "645bec5d55f964209a3c7d49"
  },
  "name": "DVSA Cramond",
  "status": "unknown",
  "latitude": "55.967912",
  "longtitude": "-3.321613",
  "createdAt": {
    "$date": "2023-05-10T19:11:25.909Z"
  },
  "updatedAt": {
    "$date": "2024-09-26T19:03:36.159Z"
  },
  "__v": 0,
  "user_id": "6456b12ab03217fd3b935d80"
},
{
  "_id": {
    "$oid": "645bee2655f964209a3c7d66"
  },
  "name": "DVSA Dover East Docks",
  "status": "unknown",
  "latitude": "51.12836111",
  "longtitude": "1.33297222",
  "createdAt": {
    "$date": "2023-05-10T19:19:02.391Z"
  },
  "updatedAt": {
    "$date": "2024-09-26T14:42:00.374Z"
  },
  "__v": 0,
  "user_id": "6456b12ab03217fd3b935d80"
},
{
  "_id": {
    "$oid": "645bf16255f964209a3c7d7e"
  },
  "name": "DVSA Hatfield",
  "status": "unknown",
  "latitude": "51.77566667",
  "longtitude": "-0.22477778",
  "createdAt": {
    "$date": "2023-05-10T19:32:50.754Z"
  },
  "updatedAt": {
    "$date": "2024-09-27T11:18:05.078Z"
  },
  "__v": 0,
  "user_id": "6456b12ab03217fd3b935d80"
},
{
  "_id": {
    "$oid": "645bf52c55f964209a3c7db2"
  },
  "name": "DVSA Switch Island",
  "status": "unknown",
  "latitude": "53.493745",
  "longtitude": "-2.954039",
  "createdAt": {
    "$date": "2023-05-10T19:49:00.443Z"
  },
  "updatedAt": {
    "$date": "2024-09-26T11:35:01.145Z"
  },
  "__v": 0,
  "user_id": "6456b12ab03217fd3b935d80"
},
{
  "_id": {
    "$oid": "645bf5cc55f964209a3c7db8"
  },
  "name": "DVSA Winchester",
  "status": "inactive",
  "latitude": "51.0535625",
  "longtitude": "-1.2954375",
  "createdAt": {
    "$date": "2023-05-10T19:51:40.604Z"
  },
  "updatedAt": {
    "$date": "2024-09-27T10:20:20.000Z"
  },
  "__v": 0,
  "user_id": "6456b12ab03217fd3b935d80"
},
{
  "_id": {
    "$oid": "645bf5eb55f964209a3c7dbb"
  },
  "name": "DVSA Beverley / Oldbeck Rd",
  "status": "unknown",
  "latitude": "53.8448125",
  "longtitude": "-0.4026875",
  "createdAt": {
    "$date": "2023-05-10T19:52:11.918Z"
  },
  "updatedAt": {
    "$date": "2024-09-27T07:13:16.813Z"
  },
  "__v": 0,
  "user_id": "6456b12ab03217fd3b935d80"
},
{
  "_id": {
    "$oid": "645bf67b55f964209a3c7dc7"
  },
  "name": "DVSA Weedon Bec",
  "status": "unknown",
  "latitude": "52.233346",
  "longtitude": "-1.087321",
  "createdAt": {
    "$date": "2023-05-10T19:54:35.234Z"
  },
  "updatedAt": {
    "$date": "2024-09-26T19:03:36.605Z"
  },
  "__v": 0,
  "user_id": "6456b12ab03217fd3b935d80"
},
{
  "_id": {
    "$oid": "6459da8d6aa09246a979aba7"
  },
  "name": "Reading services (westbound)",
  "status": "unknown",
  "latitude": "51.421652",
  "longtitude": "-1.032178",
  "__v": 0,
  "createdAt": {
    "$date": "2023-05-09T05:30:53.572Z"
  },
  "updatedAt": {
    "$date": "2024-09-26T16:47:58.059Z"
  },
  "user_id": "6456b12ab03217fd3b935d80"
},
{
  "_id": {
    "$oid": "6459da8d6aa09246a979aba9"
  },
  "name": "Pease Pottage services",
  "status": "inactive",
  "latitude": "51.084068",
  "longtitude": "-0.19789137",
  "__v": 0,
  "createdAt": {
    "$date": "2023-05-09T05:30:53.574Z"
  },
  "updatedAt": {
    "$date": "2024-09-27T10:20:20.344Z"
  },
  "user_id": "6456b12ab03217fd3b935d80"
},
{
  "_id": {
    "$oid": "6459da8d6aa09246a979abaf"
  },
  "name": "Membury services (westbound)",
  "status": "unknown",
  "latitude": "51.480556",
  "longtitude": "-1.554158",
  "__v": 0,
  "createdAt": {
    "$date": "2023-05-09T05:30:53.574Z"
  },
  "updatedAt": {
    "$date": "2024-09-26T22:09:06.267Z"
  },
  "user_id": "6456b12ab03217fd3b935d80"
},
{
  "_id": {
    "$oid": "6459da8d6aa09246a979abbb"
  },
  "name": "Leicester Forest East services (southbound)",
  "status": "unknown",
  "latitude": "52.620469",
  "longtitude": "-1.205835",
  "__v": 0,
  "createdAt": {
    "$date": "2023-05-09T05:30:53.576Z"
  },
  "updatedAt": {
    "$date": "2024-09-27T09:36:31.679Z"
  },
  "user_id": "6456b12ab03217fd3b935d80"
},
{
  "_id": {
    "$oid": "6459da8d6aa09246a979abbc"
  },
  "name": "Lancaster services (northbound)",
  "status": "inactive",
  "latitude": "53.960646",
  "longtitude": "-2.7588303",
  "__v": 0,
  "createdAt": {
    "$date": "2023-05-09T05:30:53.576Z"
  },
  "updatedAt": {
    "$date": "2024-09-27T11:12:51.745Z"
  },
  "user_id": "6456b12ab03217fd3b935d80"
},
{
  "_id": {
    "$oid": "6459da8d6aa09246a979abd3"
  },
  "name": "M18 / M180 Doncaster (North) services",
  "status": "unknown",
  "latitude": "53.591004",
  "longtitude": "-0.99230066",
  "__v": 0,
  "createdAt": {
    "$date": "2023-05-09T05:30:53.577Z"
  },
  "updatedAt": {
    "$date": "2024-09-26T19:24:59.039Z"
  },
  "user_id": "6456b12ab03217fd3b935d80"
},
{
  "_id": {
    "$oid": "6459da8d6aa09246a979abdb"
  },
  "name": "Corley services (south-eastbound)",
  "status": "unknown",
  "latitude": "52.472597",
  "longtitude": "-1.549646",
  "__v": 0,
  "createdAt": {
    "$date": "2023-05-09T05:30:53.577Z"
  },
  "updatedAt": {
    "$date": "2024-09-26T19:03:37.179Z"
  },
  "user_id": "6456b12ab03217fd3b935d80"
},
{
  "_id": {
    "$oid": "6459da8d6aa09246a979abfa"
  },
  "name": "Beacon Hill services",
  "status": "unknown",
  "latitude": "52.14799",
  "longtitude": "1.0805078",
  "__v": 0,
  "createdAt": {
    "$date": "2023-05-09T05:30:53.579Z"
  },
  "updatedAt": {
    "$date": "2024-09-27T11:08:59.551Z"
  },
  "user_id": "6456b12ab03217fd3b935d80"
},
{
  "_id": {
    "$oid": "6459da8d6aa09246a979abfe"
  },
  "name": "Carcroft services",
  "status": "unknown",
  "latitude": "53.588147",
  "longtitude": "-1.214291",
  "__v": 0,
  "createdAt": {
    "$date": "2023-05-09T05:30:53.579Z"
  },
  "updatedAt": {
    "$date": "2024-09-27T07:13:17.909Z"
  },
  "user_id": "6456b12ab03217fd3b935d80"
},
{
  "_id": {
    "$oid": "6459da8d6aa09246a979ac14"
  },
  "name": "Pyecombe services (south)",
  "status": "unknown",
  "latitude": "50.895684",
  "longtitude": "-0.16311049",
  "__v": 0,
  "createdAt": {
    "$date": "2023-05-09T05:30:53.580Z"
  },
  "updatedAt": {
    "$date": "2024-09-26T00:11:53.826Z"
  },
  "user_id": "6456b12ab03217fd3b935d80"
},
{
  "_id": {
    "$oid": "6459da8d6aa09246a979ac1f"
  },
  "name": "The Buck services",
  "status": "unknown",
  "latitude": "51.188573",
  "longtitude": "-1.4116386",
  "__v": 0,
  "createdAt": {
    "$date": "2023-05-09T05:30:53.580Z"
  },
  "updatedAt": {
    "$date": "2024-09-24T14:25:01.918Z"
  },
  "user_id": "6456b12ab03217fd3b935d80"
},
{
  "_id": {
    "$oid": "6459da8d6aa09246a979ac28"
  },
  "name": "Markham Moor services (south-west)",
  "status": "unknown",
  "latitude": "53.255395",
  "longtitude": "-0.92490815",
  "__v": 0,
  "createdAt": {
    "$date": "2023-05-09T05:30:53.581Z"
  },
  "updatedAt": {
    "$date": "2024-09-27T11:08:59.551Z"
  },
  "user_id": "6456b12ab03217fd3b935d80"
},
{
  "_id": {
    "$oid": "6459da8d6aa09246a979ac2b"
  },
  "name": "Newmarket (Rowley Mile) services",
  "status": "unknown",
  "latitude": "52.249309",
  "longtitude": "0.3637746",
  "__v": 0,
  "createdAt": {
    "$date": "2023-05-09T05:30:53.581Z"
  },
  "updatedAt": {
    "$date": "2024-09-26T13:59:34.811Z"
  },
  "user_id": "6456b12ab03217fd3b935d80"
},
{
  "_id": {
    "$oid": "6459da8d6aa09246a979ab8f"
  },
  "name": "Winchester services (southbound)",
  "status": "inactive",
  "latitude": "51.116793",
  "longtitude": "-1.253396",
  "__v": 0,
  "createdAt": {
    "$date": "2023-05-09T05:30:53.570Z"
  },
  "updatedAt": {
    "$date": "2024-09-27T11:12:53.993Z"
  },
  "user_id": "6456b12ab03217fd3b935d80"
},
{
  "_id": {
    "$oid": "6459da8d6aa09246a979ab96"
  },
  "name": "Trowell services (southbound)",
  "status": "unknown",
  "latitude": "52.962781",
  "longtitude": "-1.265606",
  "__v": 0,
  "createdAt": {
    "$date": "2023-05-09T05:30:53.571Z"
  },
  "updatedAt": {
    "$date": "2024-09-26T22:09:07.049Z"
  },
  "user_id": "6456b12ab03217fd3b935d80"
},
{
  "_id": {
    "$oid": "6459da8d6aa09246a979ab9d"
  },
  "name": "Tamworth services",
  "status": "unknown",
  "latitude": "52.606509",
  "longtitude": "-1.6416554",
  "__v": 0,
  "createdAt": {
    "$date": "2023-05-09T05:30:53.572Z"
  },
  "updatedAt": {
    "$date": "2024-09-26T11:35:08.622Z"
  },
  "user_id": "6456b12ab03217fd3b935d80"
},
{
  "_id": {
    "$oid": "6459da8d6aa09246a979aba1"
  },
  "name": "Strensham services (southbond)",
  "status": "inactive",
  "latitude": "52.058435",
  "longtitude": "-2.1433",
  "__v": 0,
  "createdAt": {
    "$date": "2023-05-09T05:30:53.572Z"
  },
  "updatedAt": {
    "$date": "2024-09-27T09:34:50.948Z"
  },
  "user_id": "6456b12ab03217fd3b935d80"
},
{
  "_id": {
    "$oid": "6459da8d6aa09246a979abab"
  },
  "name": "Newport Pagnell services (northbound)",
  "status": "unknown",
  "latitude": "52.082315",
  "longtitude": "-0.748309",
  "__v": 0,
  "createdAt": {
    "$date": "2023-05-09T05:30:53.574Z"
  },
  "updatedAt": {
    "$date": "2024-09-26T11:35:10.278Z"
  },
  "user_id": "6456b12ab03217fd3b935d80"
},
{
  "_id": {
    "$oid": "6459da8d6aa09246a979abb0"
  },
  "name": "Membury services (eastbound)",
  "status": "unknown",
  "latitude": "51.48403",
  "longtitude": "-1.559608",
  "__v": 0,
  "createdAt": {
    "$date": "2023-05-09T05:30:53.575Z"
  },
  "updatedAt": {
    "$date": "2024-09-25T10:20:36.825Z"
  },
  "user_id": "6456b12ab03217fd3b935d80"
},
{
  "_id": {
    "$oid": "6459da8d6aa09246a979abb1"
  },
  "name": "Medway services (westbound)",
  "status": "unknown",
  "latitude": "51.341189",
  "longtitude": "0.610304",
  "__v": 0,
  "createdAt": {
    "$date": "2023-05-09T05:30:53.575Z"
  },
  "updatedAt": {
    "$date": "2024-09-26T16:48:01.336Z"
  },
  "user_id": "6456b12ab03217fd3b935d80"
},
{
  "_id": {
    "$oid": "6459da8d6aa09246a979ac19"
  },
  "name": "Smithaleigh services",
  "status": "unknown",
  "latitude": "50.382062",
  "longtitude": "-3.9847085",
  "__v": 0,
  "createdAt": {
    "$date": "2023-05-09T05:30:53.580Z"
  },
  "updatedAt": {
    "$date": "2024-09-26T11:35:18.124Z"
  },
  "user_id": "6456b12ab03217fd3b935d80"
},
{
  "_id": {
    "$oid": "6459da8d6aa09246a979ac1e"
  },
  "name": "Stracathro services",
  "status": "unknown",
  "latitude": "56.772832",
  "longtitude": "-2.6109758",
  "__v": 0,
  "createdAt": {
    "$date": "2023-05-09T05:30:53.580Z"
  },
  "updatedAt": {
    "$date": "2024-09-27T11:08:59.581Z"
  },
  "user_id": "6456b12ab03217fd3b935d80"
},
{
  "_id": {
    "$oid": "6459da8d6aa09246a979ac2f"
  },
  "name": "Picket Post services (westbound)",
  "status": "inactive",
  "latitude": "50.85401",
  "longtitude": "-1.7299417",
  "__v": 0,
  "createdAt": {
    "$date": "2023-05-09T05:30:53.581Z"
  },
  "updatedAt": {
    "$date": "2024-09-27T10:20:21.498Z"
  },
  "user_id": "6456b12ab03217fd3b935d80"
},
{
  "_id": {
    "$oid": "6459da8d6aa09246a979ac30"
  },
  "name": "Picket Post services (eastbound)",
  "status": "inactive",
  "latitude": "50.854501",
  "longtitude": "-1.7304084",
  "__v": 0,
  "createdAt": {
    "$date": "2023-05-09T05:30:53.581Z"
  },
  "updatedAt": {
    "$date": "2024-09-27T11:12:55.899Z"
  },
  "user_id": "6456b12ab03217fd3b935d80"
},
{
  "_id": {
    "$oid": "6459da8d6aa09246a979ac31"
  },
  "name": "Gristhwaite services",
  "status": "unknown",
  "latitude": "54.197139",
  "longtitude": "-1.3628291",
  "__v": 0,
  "createdAt": {
    "$date": "2023-05-09T05:30:53.581Z"
  },
  "updatedAt": {
    "$date": "2024-09-26T11:35:19.840Z"
  },
  "user_id": "6456b12ab03217fd3b935d80"
},
{
  "_id": {
    "$oid": "6459da8d6aa09246a979abad"
  },
  "name": "Michaelwood services (northbound)",
  "status": "inactive",
  "latitude": "51.655268",
  "longtitude": "-2.433271",
  "__v": 0,
  "createdAt": {
    "$date": "2023-05-09T05:30:53.574Z"
  },
  "updatedAt": {
    "$date": "2024-09-27T09:34:44.866Z"
  },
  "user_id": "6456b12ab03217fd3b935d80"
},
{
  "_id": {
    "$oid": "6459da8d6aa09246a979abb9"
  },
  "name": "Leigh Delamere services (eastbound)",
  "status": "unknown",
  "latitude": "51.51047",
  "longtitude": "-2.1619396",
  "__v": 0,
  "createdAt": {
    "$date": "2023-05-09T05:30:53.575Z"
  },
  "updatedAt": {
    "$date": "2024-09-26T10:17:29.441Z"
  },
  "user_id": "6456b12ab03217fd3b935d80"
},
{
  "_id": {
    "$oid": "6459da8d6aa09246a979abbe"
  },
  "name": "Knutsford services (northbound)",
  "status": "inactive",
  "latitude": "53.299625",
  "longtitude": "-2.4014421",
  "__v": 0,
  "createdAt": {
    "$date": "2023-05-09T05:30:53.576Z"
  },
  "updatedAt": {
    "$date": "2024-09-27T10:20:21.882Z"
  },
  "user_id": "6456b12ab03217fd3b935d80"
},
{
  "_id": {
    "$oid": "6459da8d6aa09246a979abc6"
  },
  "name": "Heston services (westbound)",
  "status": "unknown",
  "latitude": "51.487124",
  "longtitude": "-0.394167",
  "__v": 0,
  "createdAt": {
    "$date": "2023-05-09T05:30:53.576Z"
  },
  "updatedAt": {
    "$date": "2024-09-24T20:27:20.850Z"
  },
  "user_id": "6456b12ab03217fd3b935d80"
},
{
  "_id": {
    "$oid": "6459da8d6aa09246a979abcb"
  },
  "name": "Gordano services",
  "status": "unknown",
  "latitude": "51.476592",
  "longtitude": "-2.7094857",
  "__v": 0,
  "createdAt": {
    "$date": "2023-05-09T05:30:53.577Z"
  },
  "updatedAt": {
    "$date": "2024-09-27T11:09:49.574Z"
  },
  "user_id": "6456b12ab03217fd3b935d80"
},
{
  "_id": {
    "$oid": "6459da8d6aa09246a979abe2"
  },
  "name": "Burtonwood services",
  "status": "unknown",
  "latitude": "53.41667",
  "longtitude": "-2.640646",
  "__v": 0,
  "createdAt": {
    "$date": "2023-05-09T05:30:53.578Z"
  },
  "updatedAt": {
    "$date": "2024-09-26T11:35:22.860Z"
  },
  "user_id": "6456b12ab03217fd3b935d80"
},
{
  "_id": {
    "$oid": "6459da8d6aa09246a979abec"
  },
  "name": "Abington services",
  "status": "inactive",
  "latitude": "55.505331",
  "longtitude": "-3.694732",
  "__v": 0,
  "createdAt": {
    "$date": "2023-05-09T05:30:53.578Z"
  },
  "updatedAt": {
    "$date": "2024-09-27T11:12:05.541Z"
  },
  "user_id": "6456b12ab03217fd3b935d80"
},
{
  "_id": {
    "$oid": "6459da8d6aa09246a979abed"
  },
  "name": "Derby services (westbound)",
  "status": "inactive",
  "latitude": "52.867074",
  "longtitude": "-1.369954",
  "__v": 0,
  "createdAt": {
    "$date": "2023-05-09T05:30:53.578Z"
  },
  "updatedAt": {
    "$date": "2024-09-27T11:12:57.829Z"
  },
  "user_id": "6456b12ab03217fd3b935d80"
},
{
  "_id": {
    "$oid": "6459da8d6aa09246a979abf9"
  },
  "name": "Barton Stacey services",
  "status": "inactive",
  "latitude": "51.180991",
  "longtitude": "-1.3775362",
  "__v": 0,
  "createdAt": {
    "$date": "2023-05-09T05:30:53.579Z"
  },
  "updatedAt": {
    "$date": "2024-09-27T10:20:22.291Z"
  },
  "user_id": "6456b12ab03217fd3b935d80"
},
{
  "_id": {
    "$oid": "6459da8d6aa09246a979ac0c"
  },
  "name": "Fenstanton services",
  "status": "unknown",
  "latitude": "52.292989",
  "longtitude": "-0.05932443",
  "__v": 0,
  "createdAt": {
    "$date": "2023-05-09T05:30:53.580Z"
  },
  "updatedAt": {
    "$date": "2024-09-27T09:36:33.701Z"
  },
  "user_id": "6456b12ab03217fd3b935d80"
},
{
  "_id": {
    "$oid": "6459da8d6aa09246a979ac22"
  },
  "name": "Kettering West services",
  "status": "unknown",
  "latitude": "52.379999",
  "longtitude": "-0.72976202",
  "__v": 0,
  "createdAt": {
    "$date": "2023-05-09T05:30:53.581Z"
  },
  "updatedAt": {
    "$date": "2024-09-27T11:09:04.394Z"
  },
  "user_id": "6456b12ab03217fd3b935d80"
},
{
  "_id": {
    "$oid": "6459da8d6aa09246a979ac27"
  },
  "name": "Liphook services (southbound)",
  "status": "unknown",
  "latitude": "51.082915",
  "longtitude": "-0.81815153",
  "__v": 0,
  "createdAt": {
    "$date": "2023-05-09T05:30:53.581Z"
  },
  "updatedAt": {
    "$date": "2024-09-26T11:35:25.405Z"
  },
  "user_id": "6456b12ab03217fd3b935d80"
},
{
  "_id": {
    "$oid": "6459da8d6aa09246a979ac39"
  },
  "name": "Whiddon Down services",
  "status": "unknown",
  "latitude": "50.719871",
  "longtitude": "-3.8508931",
  "__v": 0,
  "createdAt": {
    "$date": "2023-05-09T05:30:53.582Z"
  },
  "updatedAt": {
    "$date": "2024-09-25T12:30:35.396Z"
  },
  "user_id": "6456b12ab03217fd3b935d80"
},
{
  "_id": {
    "$oid": "6459da8d6aa09246a979ab8c"
  },
  "name": "Woolley Edge services (northbound)",
  "status": "unknown",
  "latitude": "53.620445",
  "longtitude": "-1.55007",
  "__v": 0,
  "createdAt": {
    "$date": "2023-05-09T05:30:53.570Z"
  },
  "updatedAt": {
    "$date": "2024-09-27T09:36:34.054Z"
  },
  "user_id": "6456b12ab03217fd3b935d80"
},
{
  "_id": {
    "$oid": "6459da8d6aa09246a979ab9c"
  },
  "name": "Thurrock services",
  "status": "inactive",
  "latitude": "51.4915",
  "longtitude": "0.269401",
  "__v": 0,
  "createdAt": {
    "$date": "2023-05-09T05:30:53.572Z"
  },
  "updatedAt": {
    "$date": "2024-09-27T10:20:22.767Z"
  },
  "user_id": "6456b12ab03217fd3b935d80"
},
{
  "_id": {
    "$oid": "6459da8d6aa09246a979abb6"
  },
  "name": "Lymm services",
  "status": "unknown",
  "latitude": "53.359479",
  "longtitude": "-2.50595",
  "__v": 0,
  "createdAt": {
    "$date": "2023-05-09T05:30:53.575Z"
  },
  "updatedAt": {
    "$date": "2024-09-26T11:35:27.170Z"
  },
  "user_id": "6456b12ab03217fd3b935d80"
},
{
  "_id": {
    "$oid": "6459da8d6aa09246a979abc0"
  },
  "name": "Kinross services",
  "status": "unknown",
  "latitude": "56.208957",
  "longtitude": "-3.440019",
  "__v": 0,
  "createdAt": {
    "$date": "2023-05-09T05:30:53.576Z"
  },
  "updatedAt": {
    "$date": "2024-09-26T11:35:27.560Z"
  },
  "user_id": "6456b12ab03217fd3b935d80"
},
{
  "_id": {
    "$oid": "6459da8d6aa09246a979abca"
  },
  "name": "Gretna services",
  "status": "inactive",
  "latitude": "55.008899",
  "longtitude": "-3.087555",
  "__v": 0,
  "createdAt": {
    "$date": "2023-05-09T05:30:53.577Z"
  },
  "updatedAt": {
    "$date": "2024-09-27T11:12:59.735Z"
  },
  "user_id": "6456b12ab03217fd3b935d80"
},
{
  "_id": {
    "$oid": "6459da8d6aa09246a979abce"
  },
  "name": "Fleet services (south-westbound)",
  "status": "unknown",
  "latitude": "51.296139",
  "longtitude": "-0.85302696",
  "__v": 0,
  "createdAt": {
    "$date": "2023-05-09T05:30:53.577Z"
  },
  "updatedAt": {
    "$date": "2024-09-26T16:48:01.336Z"
  },
  "user_id": "6456b12ab03217fd3b935d80"
},
{
  "_id": {
    "$oid": "6459da8d6aa09246a979abcf"
  },
  "name": "Fleet services (north-eastbound)",
  "status": "unknown",
  "latitude": "51.296036",
  "longtitude": "-0.857974",
  "__v": 0,
  "createdAt": {
    "$date": "2023-05-09T05:30:53.577Z"
  },
  "updatedAt": {
    "$date": "2024-09-27T11:09:04.310Z"
  },
  "user_id": "6456b12ab03217fd3b935d80"
},
{
  "_id": {
    "$oid": "6459da8d6aa09246a979abd1"
  },
  "name": "Exeter services",
  "status": "unknown",
  "latitude": "50.714873",
  "longtitude": "-3.4650989",
  "__v": 0,
  "createdAt": {
    "$date": "2023-05-09T05:30:53.577Z"
  },
  "updatedAt": {
    "$date": "2024-09-26T11:35:31.168Z"
  },
  "user_id": "6456b12ab03217fd3b935d80"
},
{
  "_id": {
    "$oid": "6459da8d6aa09246a979ac05"
  },
  "name": "Handcross services",
  "status": "unknown",
  "latitude": "51.056057",
  "longtitude": "-0.20106375",
  "__v": 0,
  "createdAt": {
    "$date": "2023-05-09T05:30:53.579Z"
  },
  "updatedAt": {
    "$date": "2024-09-25T16:31:43.018Z"
  },
  "user_id": "6456b12ab03217fd3b935d80"
},
{
  "_id": {
    "$oid": "6459da8d6aa09246a979ac35"
  },
  "name": "Thrussington services (northbound)",
  "status": "unknown",
  "latitude": "52.753671",
  "longtitude": "-1.060119",
  "__v": 0,
  "createdAt": {
    "$date": "2023-05-09T05:30:53.581Z"
  },
  "updatedAt": {
    "$date": "2024-09-26T19:03:40.520Z"
  },
  "user_id": "6456b12ab03217fd3b935d80"
},
{
  "_id": {
    "$oid": "645be1af55f964209a3c7cbd"
  },
  "name": "DVSA Crick",
  "status": "inactive",
  "latitude": "52.35077778",
  "longtitude": "-1.15169444",
  "createdAt": {
    "$date": "2023-05-10T18:25:51.549Z"
  },
  "updatedAt": {
    "$date": "2024-09-27T09:52:06.325Z"
  },
  "__v": 0,
  "user_id": "6456b12ab03217fd3b935d80"
},
{
  "_id": {
    "$oid": "645be29a55f964209a3c7cc7"
  },
  "name": "DVSA Leatherhead",
  "status": "unknown",
  "latitude": "51.3049375",
  "longtitude": "-0.3228125",
  "createdAt": {
    "$date": "2023-05-10T18:29:46.958Z"
  },
  "updatedAt": {
    "$date": "2024-09-27T07:13:18.324Z"
  },
  "__v": 0,
  "user_id": "6456b12ab03217fd3b935d80"
},
{
  "_id": {
    "$oid": "645be2da55f964209a3c7ccb"
  },
  "name": "DVSA Narberth",
  "status": "unknown",
  "latitude": "51.81641667",
  "longtitude": "-4.72319444",
  "createdAt": {
    "$date": "2023-05-10T18:30:50.170Z"
  },
  "updatedAt": {
    "$date": "2024-09-27T11:09:04.300Z"
  },
  "__v": 0,
  "user_id": "6456b12ab03217fd3b935d80"
},
{
  "_id": {
    "$oid": "645be42955f964209a3c7cdb"
  },
  "name": "DVSA Poole Harbour",
  "status": "inactive",
  "latitude": "50.70991667",
  "longtitude": "-1.9896113",
  "createdAt": {
    "$date": "2023-05-10T18:36:25.764Z"
  },
  "updatedAt": {
    "$date": "2024-09-27T11:13:01.607Z"
  },
  "__v": 0,
  "user_id": "6456b12ab03217fd3b935d80"
},
{
  "_id": {
    "$oid": "645be76655f964209a3c7d06"
  },
  "name": "DVSA Wingate A19",
  "status": "unknown",
  "latitude": "54.73811111",
  "longtitude": "-1.36636111",
  "createdAt": {
    "$date": "2023-05-10T18:50:14.298Z"
  },
  "updatedAt": {
    "$date": "2024-09-26T11:35:35.430Z"
  },
  "__v": 0,
  "user_id": "6456b12ab03217fd3b935d80"
},
{
  "_id": {
    "$oid": "645be87f55f964209a3c7d0c"
  },
  "name": "DVSA Withy Patch",
  "status": "unknown",
  "latitude": "50.83908333",
  "longtitude": "-0.3065278",
  "createdAt": {
    "$date": "2023-05-10T18:54:55.171Z"
  },
  "updatedAt": {
    "$date": "2024-09-26T19:03:42.628Z"
  },
  "__v": 0,
  "user_id": "6456b12ab03217fd3b935d80"
},
{
  "_id": {
    "$oid": "645be8f855f964209a3c7d12"
  },
  "name": "DVSA Charlesfield",
  "status": "unknown",
  "latitude": "55.55755556",
  "longtitude": "-2.66322222",
  "createdAt": {
    "$date": "2023-05-10T18:56:56.873Z"
  },
  "updatedAt": {
    "$date": "2024-09-26T08:45:24.953Z"
  },
  "__v": 0,
  "user_id": "6456b12ab03217fd3b935d80"
},
{
  "_id": {
    "$oid": "645bea0855f964209a3c7d21"
  },
  "name": "DVSA Wetherby",
  "status": "unknown",
  "latitude": "53.90605556",
  "longtitude": "-1.3786666",
  "createdAt": {
    "$date": "2023-05-10T19:01:28.079Z"
  },
  "updatedAt": {
    "$date": "2024-09-27T11:49:13.232Z"
  },
  "__v": 0,
  "user_id": "6456b12ab03217fd3b935d80"
},
{
  "_id": {
    "$oid": "645beabe55f964209a3c7d2d"
  },
  "name": "DVSA Ringwood / Ashley Heath ",
  "status": "unknown",
  "latitude": "50.83838889",
  "longtitude": "-1.814",
  "createdAt": {
    "$date": "2023-05-10T19:04:30.558Z"
  },
  "updatedAt": {
    "$date": "2024-09-26T11:35:37.976Z"
  },
  "__v": 0,
  "user_id": "6456b12ab03217fd3b935d80"
},
{
  "_id": {
    "$oid": "645bebda55f964209a3c7d40"
  },
  "name": "DVSA Coldra / Newport M4 j24",
  "status": "unknown",
  "latitude": "51.60261111",
  "longtitude": "-2.92486111",
  "createdAt": {
    "$date": "2023-05-10T19:09:14.148Z"
  },
  "updatedAt": {
    "$date": "2024-09-26T22:09:08.778Z"
  },
  "__v": 0,
  "user_id": "6456b12ab03217fd3b935d80"
},
{
  "_id": {
    "$oid": "645bed3b55f964209a3c7d57"
  },
  "name": "DVSA Ainley Top",
  "status": "unknown",
  "latitude": "53.672838",
  "longtitude": "-1.8351942",
  "createdAt": {
    "$date": "2023-05-10T19:15:07.141Z"
  },
  "updatedAt": {
    "$date": "2024-09-27T07:13:18.998Z"
  },
  "__v": 0,
  "user_id": "6456b12ab03217fd3b935d80"
},
{
  "_id": {
    "$oid": "645bee4e55f964209a3c7d69"
  },
  "name": "DVSA Dunkirk / Chester",
  "status": "unknown",
  "latitude": "53.245386",
  "longtitude": "-2.938153",
  "createdAt": {
    "$date": "2023-05-10T19:19:42.187Z"
  },
  "updatedAt": {
    "$date": "2024-09-27T09:36:35.634Z"
  },
  "__v": 0,
  "user_id": "6456b12ab03217fd3b935d80"
},
{
  "_id": {
    "$oid": "645bee7955f964209a3c7d6f"
  },
  "name": "DVSA Ewloe / Buckley",
  "status": "unknown",
  "latitude": "53.19130556",
  "longtitude": "-3.05580556",
  "createdAt": {
    "$date": "2023-05-10T19:20:25.128Z"
  },
  "updatedAt": {
    "$date": "2024-09-26T16:48:03.703Z"
  },
  "__v": 0,
  "user_id": "6456b12ab03217fd3b935d80"
},
{
  "_id": {
    "$oid": "645beea555f964209a3c7d72"
  },
  "name": "DVSA Handcross A23 ",
  "status": "inactive",
  "latitude": "51.05088889",
  "longtitude": "-0.20180556",
  "createdAt": {
    "$date": "2023-05-10T19:21:09.640Z"
  },
  "updatedAt": {
    "$date": "2024-09-27T11:13:03.512Z"
  },
  "__v": 0,
  "user_id": "6456b12ab03217fd3b935d80"
},
{
  "_id": {
    "$oid": "645beed255f964209a3c7d75"
  },
  "name": "DVSA Harlow",
  "status": "unknown",
  "latitude": "51.74361111",
  "longtitude": "0.13636111",
  "createdAt": {
    "$date": "2023-05-10T19:21:54.802Z"
  },
  "updatedAt": {
    "$date": "2024-09-27T11:17:49.155Z"
  },
  "__v": 0,
  "user_id": "6456b12ab03217fd3b935d80"
},
{
  "_id": {
    "$oid": "645bf14355f964209a3c7d7a"
  },
  "name": "DVSA Harwich Docks",
  "status": "unknown",
  "latitude": "51.94502778",
  "longtitude": "1.26016667",
  "createdAt": {
    "$date": "2023-05-10T19:32:19.000Z"
  },
  "updatedAt": {
    "$date": "2024-09-25T17:47:35.062Z"
  },
  "__v": 0,
  "user_id": "6456b12ab03217fd3b935d80"
},
{
  "_id": {
    "$oid": "645bf1de55f964209a3c7d8a"
  },
  "name": "DVSA Immingham",
  "status": "unknown",
  "latitude": "53.63297222",
  "longtitude": "-0.229",
  "createdAt": {
    "$date": "2023-05-10T19:34:54.882Z"
  },
  "updatedAt": {
    "$date": "2024-09-27T09:36:36.743Z"
  },
  "__v": 0,
  "user_id": "6456b12ab03217fd3b935d80"
},
{
  "_id": {
    "$oid": "6459da8d6aa09246a979ab91"
  },
  "name": "Washington services (northbound)",
  "status": "inactive",
  "latitude": "54.889009",
  "longtitude": "-1.559613",
  "__v": 0,
  "createdAt": {
    "$date": "2023-05-09T05:30:53.571Z"
  },
  "updatedAt": {
    "$date": "2024-09-27T10:20:23.829Z"
  },
  "user_id": "6456b12ab03217fd3b935d80"
},
{
  "_id": {
    "$oid": "6459da8d6aa09246a979ab93"
  },
  "name": "Warwick services (northbound)",
  "status": "unknown",
  "latitude": "52.216541",
  "longtitude": "-1.502659",
  "__v": 0,
  "createdAt": {
    "$date": "2023-05-09T05:30:53.571Z"
  },
  "updatedAt": {
    "$date": "2024-09-26T11:35:41.086Z"
  },
  "user_id": "6456b12ab03217fd3b935d80"
},
{
  "_id": {
    "$oid": "6459da8d6aa09246a979abc3"
  },
  "name": "Hopwood Park services",
  "status": "unknown",
  "latitude": "52.363366",
  "longtitude": "-1.9486664",
  "__v": 0,
  "createdAt": {
    "$date": "2023-05-09T05:30:53.576Z"
  },
  "updatedAt": {
    "$date": "2024-09-26T14:42:06.470Z"
  },
  "user_id": "6456b12ab03217fd3b935d80"
},
{
  "_id": {
    "$oid": "6459da8d6aa09246a979abf5"
  },
  "name": "Astwick services",
  "status": "unknown",
  "latitude": "52.028479",
  "longtitude": "-0.2146934",
  "__v": 0,
  "createdAt": {
    "$date": "2023-05-09T05:30:53.579Z"
  },
  "updatedAt": {
    "$date": "2024-09-25T17:47:34.919Z"
  },
  "user_id": "6456b12ab03217fd3b935d80"
},
{
  "_id": {
    "$oid": "6459da8d6aa09246a979abfd"
  },
  "name": "Brampton Hut services",
  "status": "unknown",
  "latitude": "52.331948",
  "longtitude": "-0.2497901",
  "__v": 0,
  "createdAt": {
    "$date": "2023-05-09T05:30:53.579Z"
  },
  "updatedAt": {
    "$date": "2024-09-26T23:22:34.360Z"
  },
  "user_id": "65c5189673c8cfe604eebb1a"
},
{
  "_id": {
    "$oid": "6459da8d6aa09246a979ac18"
  },
  "name": "Seaton Burn services A1 j80",
  "status": "unknown",
  "latitude": "55.066502",
  "longtitude": "-1.633594",
  "__v": 0,
  "createdAt": {
    "$date": "2023-05-09T05:30:53.580Z"
  },
  "updatedAt": {
    "$date": "2024-09-26T19:25:01.322Z"
  },
  "user_id": "6456b12ab03217fd3b935d80"
},
{
  "_id": {
    "$oid": "6459da8d6aa09246a979ac1d"
  },
  "name": "Kingsham services",
  "status": "inactive",
  "latitude": "50.826304",
  "longtitude": "-0.77766493",
  "__v": 0,
  "createdAt": {
    "$date": "2023-05-09T05:30:53.580Z"
  },
  "updatedAt": {
    "$date": "2024-09-27T11:13:05.604Z"
  },
  "user_id": "6456b12ab03217fd3b935d80"
},
{
  "_id": {
    "$oid": "6459da8d6aa09246a979ac34"
  },
  "name": "Thrapston services",
  "status": "unknown",
  "latitude": "52.392473",
  "longtitude": "-0.525134",
  "__v": 0,
  "createdAt": {
    "$date": "2023-05-09T05:30:53.581Z"
  },
  "updatedAt": {
    "$date": "2024-09-25T22:35:11.816Z"
  },
  "user_id": "6456b12ab03217fd3b935d80"
},
{
  "_id": {
    "$oid": "6459da8d6aa09246a979ac37"
  },
  "name": "Tollgate services",
  "status": "unknown",
  "latitude": "51.417101",
  "longtitude": "0.36109775",
  "__v": 0,
  "createdAt": {
    "$date": "2023-05-09T05:30:53.581Z"
  },
  "updatedAt": {
    "$date": "2024-09-25T16:31:47.338Z"
  },
  "user_id": "6456b12ab03217fd3b935d80"
},
{
  "_id": {
    "$oid": "6459da8d6aa09246a979ac3b"
  },
  "name": "Willington (Egginton) services (northbound)",
  "status": "unknown",
  "latitude": "52.854807",
  "longtitude": "-1.582903",
  "__v": 0,
  "createdAt": {
    "$date": "2023-05-09T05:30:53.582Z"
  },
  "updatedAt": {
    "$date": "2024-09-26T10:17:32.402Z"
  },
  "user_id": "6456b12ab03217fd3b935d80"
},
{
  "_id": {
    "$oid": "6459da8d6aa09246a979ab8e"
  },
  "name": "Winchester services (northbound)",
  "status": "unknown",
  "latitude": "51.11952",
  "longtitude": "-1.254662",
  "__v": 0,
  "createdAt": {
    "$date": "2023-05-09T05:30:53.570Z"
  },
  "updatedAt": {
    "$date": "2024-09-26T00:11:55.668Z"
  },
  "user_id": "6456b12ab03217fd3b935d80"
},
{
  "_id": {
    "$oid": "6459da8d6aa09246a979ab9a"
  },
  "name": "Toddington services (southbound)",
  "status": "unknown",
  "latitude": "51.948818",
  "longtitude": "-0.50308116",
  "__v": 0,
  "createdAt": {
    "$date": "2023-05-09T05:30:53.572Z"
  },
  "updatedAt": {
    "$date": "2024-09-26T19:03:44.309Z"
  },
  "user_id": "6456b12ab03217fd3b935d80"
},
{
  "_id": {
    "$oid": "6459da8d6aa09246a979abcc"
  },
  "name": "Frankley services (northbound)",
  "status": "unknown",
  "latitude": "52.427793",
  "longtitude": "-2.018652",
  "__v": 0,
  "createdAt": {
    "$date": "2023-05-09T05:30:53.577Z"
  },
  "updatedAt": {
    "$date": "2024-09-26T19:25:03.126Z"
  },
  "user_id": "6456b12ab03217fd3b935d80"
},
{
  "_id": {
    "$oid": "6459da8d6aa09246a979abd6"
  },
  "name": "Sutton Scotney services (northbound)",
  "status": "unknown",
  "latitude": "51.155432",
  "longtitude": "-1.3461377",
  "__v": 0,
  "createdAt": {
    "$date": "2023-05-09T05:30:53.577Z"
  },
  "updatedAt": {
    "$date": "2024-09-25T13:49:28.683Z"
  },
  "user_id": "6456b12ab03217fd3b935d80"
},
{
  "_id": {
    "$oid": "6459da8d6aa09246a979abe1"
  },
  "name": "Cardiff Gate services",
  "status": "unknown",
  "latitude": "51.539573",
  "longtitude": "-3.130873",
  "__v": 0,
  "createdAt": {
    "$date": "2023-05-09T05:30:53.578Z"
  },
  "updatedAt": {
    "$date": "2024-09-27T11:09:48.755Z"
  },
  "user_id": "6456b12ab03217fd3b935d80"
},
{
  "_id": {
    "$oid": "6459da8d6aa09246a979abf4"
  },
  "name": "Alwalton services",
  "status": "inactive",
  "latitude": "52.544836",
  "longtitude": "-0.33090144",
  "__v": 0,
  "createdAt": {
    "$date": "2023-05-09T05:30:53.579Z"
  },
  "updatedAt": {
    "$date": "2024-09-27T11:13:07.603Z"
  },
  "user_id": "6456b12ab03217fd3b935d80"
},
{
  "_id": {
    "$oid": "6459da8d6aa09246a979abf8"
  },
  "name": "Barnsdale Bar services (southbound)",
  "status": "unknown",
  "latitude": "53.627159",
  "longtitude": "-1.2380138",
  "__v": 0,
  "createdAt": {
    "$date": "2023-05-09T05:30:53.579Z"
  },
  "updatedAt": {
    "$date": "2024-09-26T19:03:44.898Z"
  },
  "user_id": "6456b12ab03217fd3b935d80"
},
{
  "_id": {
    "$oid": "6459da8d6aa09246a979ac07"
  },
  "name": "Emsworth services (westbound)",
  "status": "unknown",
  "latitude": "50.852899",
  "longtitude": "-0.94537944",
  "__v": 0,
  "createdAt": {
    "$date": "2023-05-09T05:30:53.580Z"
  },
  "updatedAt": {
    "$date": "2024-09-27T11:09:49.399Z"
  },
  "user_id": "6456b12ab03217fd3b935d80"
},
{
  "_id": {
    "$oid": "6459da8d6aa09246a979ac11"
  },
  "name": "Podimore services",
  "status": "unknown",
  "latitude": "51.022259",
  "longtitude": "-2.6603457",
  "__v": 0,
  "createdAt": {
    "$date": "2023-05-09T05:30:53.580Z"
  },
  "updatedAt": {
    "$date": "2024-09-27T07:13:41.112Z"
  },
  "user_id": "6456b12ab03217fd3b935d80"
},
{
  "_id": {
    "$oid": "6459da8d6aa09246a979ac12"
  },
  "name": "Popham services",
  "status": "unknown",
  "latitude": "51.193322",
  "longtitude": "-1.2318394",
  "__v": 0,
  "createdAt": {
    "$date": "2023-05-09T05:30:53.580Z"
  },
  "updatedAt": {
    "$date": "2024-09-26T19:25:03.126Z"
  },
  "user_id": "6456b12ab03217fd3b935d80"
},
{
  "_id": {
    "$oid": "6459da8d6aa09246a979ac3c"
  },
  "name": "Willington (Egginton) services (southbound)",
  "status": "unknown",
  "latitude": "52.85473",
  "longtitude": "-1.5821251",
  "__v": 0,
  "createdAt": {
    "$date": "2023-05-09T05:30:53.582Z"
  },
  "updatedAt": {
    "$date": "2024-09-26T16:48:05.584Z"
  },
  "user_id": "6456b12ab03217fd3b935d80"
},
{
  "_id": {
    "$oid": "6459da8d6aa09246a979ab94"
  },
  "name": "Warwick services (southbound)",
  "status": "unknown",
  "latitude": "52.219315",
  "longtitude": "-1.505363",
  "__v": 0,
  "createdAt": {
    "$date": "2023-05-09T05:30:53.571Z"
  },
  "updatedAt": {
    "$date": "2024-09-25T20:11:54.477Z"
  },
  "user_id": "6456b12ab03217fd3b935d80"
},
{
  "_id": {
    "$oid": "6459da8d6aa09246a979aba5"
  },
  "name": "Southwaite services (southbound)",
  "status": "unknown",
  "latitude": "54.801273",
  "longtitude": "-2.870838",
  "__v": 0,
  "createdAt": {
    "$date": "2023-05-09T05:30:53.572Z"
  },
  "updatedAt": {
    "$date": "2024-09-25T13:49:32.129Z"
  },
  "user_id": "6456b12ab03217fd3b935d80"
},
{
  "_id": {
    "$oid": "6459da8d6aa09246a979abb5"
  },
  "name": "M4 j23a Magor services",
  "status": "unknown",
  "latitude": "51.588213",
  "longtitude": "-2.8386515",
  "__v": 0,
  "createdAt": {
    "$date": "2023-05-09T05:30:53.575Z"
  },
  "updatedAt": {
    "$date": "2024-09-26T19:03:44.898Z"
  },
  "user_id": "6456b12ab03217fd3b935d80"
},
{
  "_id": {
    "$oid": "6459da8d6aa09246a979abbd"
  },
  "name": "Lancaster services (southbound)",
  "status": "unknown",
  "latitude": "53.9634",
  "longtitude": "-2.760836",
  "__v": 0,
  "createdAt": {
    "$date": "2023-05-09T05:30:53.576Z"
  },
  "updatedAt": {
    "$date": "2024-09-25T10:20:41.498Z"
  },
  "user_id": "6456b12ab03217fd3b935d80"
},
{
  "_id": {
    "$oid": "6459da8d6aa09246a979abbf"
  },
  "name": "Knutsford services (southbound)",
  "status": "inactive",
  "latitude": "53.301518",
  "longtitude": "-2.4002378",
  "__v": 0,
  "createdAt": {
    "$date": "2023-05-09T05:30:53.576Z"
  },
  "updatedAt": {
    "$date": "2024-09-27T11:13:09.862Z"
  },
  "user_id": "6456b12ab03217fd3b935d80"
},
{
  "_id": {
    "$oid": "6459da8d6aa09246a979abc2"
  },
  "name": "Keele services (southbound)",
  "status": "unknown",
  "latitude": "52.994332",
  "longtitude": "-2.291551",
  "__v": 0,
  "createdAt": {
    "$date": "2023-05-09T05:30:53.576Z"
  },
  "updatedAt": {
    "$date": "2024-09-25T20:11:54.477Z"
  },
  "user_id": "6456b12ab03217fd3b935d80"
},
{
  "_id": {
    "$oid": "6459da8d6aa09246a979abc5"
  },
  "name": "Hilton Park services (southbound)",
  "status": "unknown",
  "latitude": "52.644763",
  "longtitude": "-2.0565288",
  "__v": 0,
  "createdAt": {
    "$date": "2023-05-09T05:30:53.576Z"
  },
  "updatedAt": {
    "$date": "2024-09-25T00:07:43.038Z"
  },
  "user_id": "6456b12ab03217fd3b935d80"
},
{
  "_id": {
    "$oid": "6459da8d6aa09246a979abc8"
  },
  "name": "Hartshead Moor services (westbound)",
  "status": "unknown",
  "latitude": "53.715128",
  "longtitude": "-1.744847",
  "__v": 0,
  "createdAt": {
    "$date": "2023-05-09T05:30:53.576Z"
  },
  "updatedAt": {
    "$date": "2024-09-27T09:36:37.136Z"
  },
  "user_id": "6456b12ab03217fd3b935d80"
},
{
  "_id": {
    "$oid": "6459da8d6aa09246a979abd2"
  },
  "name": "Donington services M1 j23a",
  "status": "unknown",
  "latitude": "52.823379",
  "longtitude": "-1.30729",
  "__v": 0,
  "createdAt": {
    "$date": "2023-05-09T05:30:53.577Z"
  },
  "updatedAt": {
    "$date": "2024-09-27T11:09:07.582Z"
  },
  "user_id": "6456b12ab03217fd3b935d80"
},
{
  "_id": {
    "$oid": "6459da8d6aa09246a979abdd"
  },
  "name": "Cherwell Valley services",
  "status": "inactive",
  "latitude": "51.949188",
  "longtitude": "-1.2017872",
  "__v": 0,
  "createdAt": {
    "$date": "2023-05-09T05:30:53.577Z"
  },
  "updatedAt": {
    "$date": "2024-09-27T09:36:01.820Z"
  },
  "user_id": "6456b12ab03217fd3b935d80"
},
{
  "_id": {
    "$oid": "6459da8d6aa09246a979abe5"
  },
  "name": "Blyth services",
  "status": "unknown",
  "latitude": "53.388769",
  "longtitude": "-1.061951",
  "__v": 0,
  "createdAt": {
    "$date": "2023-05-09T05:30:53.578Z"
  },
  "updatedAt": {
    "$date": "2024-09-26T14:42:11.466Z"
  },
  "user_id": "6456b12ab03217fd3b935d80"
},
{
  "_id": {
    "$oid": "6459da8d6aa09246a979abf7"
  },
  "name": "Barnsdale Bar services (northbound)",
  "status": "unknown",
  "latitude": "53.626268",
  "longtitude": "-1.238341",
  "__v": 0,
  "createdAt": {
    "$date": "2023-05-09T05:30:53.579Z"
  },
  "updatedAt": {
    "$date": "2024-09-26T11:35:49.638Z"
  },
  "user_id": "6456b12ab03217fd3b935d80"
},
{
  "_id": {
    "$oid": "6459da8d6aa09246a979abfc"
  },
  "name": "Bloody Oaks services",
  "status": "inactive",
  "latitude": "52.674122",
  "longtitude": "-0.53279333",
  "__v": 0,
  "createdAt": {
    "$date": "2023-05-09T05:30:53.579Z"
  },
  "updatedAt": {
    "$date": "2024-09-27T10:20:25.571Z"
  },
  "user_id": "6456b12ab03217fd3b935d80"
},
{
  "_id": {
    "$oid": "6459da8d6aa09246a979ac09"
  },
  "name": "Family Farm services (northbound)",
  "status": "inactive",
  "latitude": "51.850283",
  "longtitude": "-1.2287226",
  "__v": 0,
  "createdAt": {
    "$date": "2023-05-09T05:30:53.580Z"
  },
  "updatedAt": {
    "$date": "2024-09-27T09:36:05.655Z"
  },
  "user_id": "6456b12ab03217fd3b935d80"
},
{
  "_id": {
    "$oid": "6459da8d6aa09246a979ac26"
  },
  "name": "Liphook services (northbound)",
  "status": "unknown",
  "latitude": "51.083909",
  "longtitude": "-0.81980377",
  "__v": 0,
  "createdAt": {
    "$date": "2023-05-09T05:30:53.581Z"
  },
  "updatedAt": {
    "$date": "2024-09-25T10:20:42.336Z"
  },
  "user_id": "6456b12ab03217fd3b935d80"
},
{
  "_id": {
    "$oid": "6459da8d6aa09246a979ac36"
  },
  "name": "Thrussington services (southbound)",
  "status": "unknown",
  "latitude": "52.748885",
  "longtitude": "-1.0615962",
  "__v": 0,
  "createdAt": {
    "$date": "2023-05-09T05:30:53.581Z"
  },
  "updatedAt": {
    "$date": "2024-09-27T11:09:07.582Z"
  },
  "user_id": "6456b12ab03217fd3b935d80"
},
{
  "_id": {
    "$oid": "6459da8d6aa09246a979ab9e"
  },
  "name": "Leeming Bar services",
  "status": "inactive",
  "latitude": "54.299125",
  "longtitude": "-1.5668419",
  "__v": 0,
  "createdAt": {
    "$date": "2023-05-09T05:30:53.572Z"
  },
  "updatedAt": {
    "$date": "2024-09-27T11:13:11.903Z"
  },
  "user_id": "6456b12ab03217fd3b935d80"
},
{
  "_id": {
    "$oid": "6459da8d6aa09246a979abda"
  },
  "name": "Corley services (north-westbound)",
  "status": "unknown",
  "latitude": "52.470179",
  "longtitude": "-1.543719",
  "__v": 0,
  "createdAt": {
    "$date": "2023-05-09T05:30:53.577Z"
  },
  "updatedAt": {
    "$date": "2024-09-26T14:42:11.466Z"
  },
  "user_id": "6456b12ab03217fd3b935d80"
},
{
  "_id": {
    "$oid": "6459da8d6aa09246a979abde"
  },
  "name": "Charnock Richard services (northbound)",
  "status": "unknown",
  "latitude": "53.630335",
  "longtitude": "-2.690773",
  "__v": 0,
  "createdAt": {
    "$date": "2023-05-09T05:30:53.577Z"
  },
  "updatedAt": {
    "$date": "2024-09-26T11:35:51.522Z"
  },
  "user_id": "6456b12ab03217fd3b935d80"
},
{
  "_id": {
    "$oid": "6459da8d6aa09246a979abdf"
  },
  "name": "Charnock Richard services (southbound)",
  "status": "inactive",
  "latitude": "53.632578",
  "longtitude": "-2.690701",
  "__v": 0,
  "createdAt": {
    "$date": "2023-05-09T05:30:53.577Z"
  },
  "updatedAt": {
    "$date": "2024-09-27T10:20:25.922Z"
  },
  "user_id": "6456b12ab03217fd3b935d80"
},
{
  "_id": {
    "$oid": "6459da8d6aa09246a979abe8"
  },
  "name": "Birch services (westbound)",
  "status": "unknown",
  "latitude": "53.568545",
  "longtitude": "-2.2285067",
  "__v": 0,
  "createdAt": {
    "$date": "2023-05-09T05:30:53.578Z"
  },
  "updatedAt": {
    "$date": "2024-09-26T22:09:10.670Z"
  },
  "user_id": "6456b12ab03217fd3b935d80"
},
{
  "_id": {
    "$oid": "6459da8d6aa09246a979abf2"
  },
  "name": "Alfreton services",
  "status": "unknown",
  "latitude": "53.087581",
  "longtitude": "-1.3943624",
  "__v": 0,
  "createdAt": {
    "$date": "2023-05-09T05:30:53.579Z"
  },
  "updatedAt": {
    "$date": "2024-09-26T19:03:47.565Z"
  },
  "user_id": "6456b12ab03217fd3b935d80"
},
{
  "_id": {
    "$oid": "6459da8d6aa09246a979abff"
  },
  "name": "Colsterworth services",
  "status": "unknown",
  "latitude": "52.803464",
  "longtitude": "-0.60923159",
  "__v": 0,
  "createdAt": {
    "$date": "2023-05-09T05:30:53.579Z"
  },
  "updatedAt": {
    "$date": "2024-09-26T23:21:53.802Z"
  },
  "user_id": "65c5189673c8cfe604eebb1a"
},
{
  "_id": {
    "$oid": "6459da8d6aa09246a979ac0e"
  },
  "name": "Fontwell services",
  "status": "inactive",
  "latitude": "50.855536",
  "longtitude": "-0.64936363",
  "__v": 0,
  "createdAt": {
    "$date": "2023-05-09T05:30:53.580Z"
  },
  "updatedAt": {
    "$date": "2024-09-27T10:20:26.234Z"
  },
  "user_id": "6456b12ab03217fd3b935d80"
},
{
  "_id": {
    "$oid": "6459da8d6aa09246a979ac3f"
  },
  "name": "Wyboston services",
  "status": "unknown",
  "latitude": "52.192679",
  "longtitude": "-0.29845832",
  "__v": 0,
  "createdAt": {
    "$date": "2023-05-09T05:30:53.582Z"
  },
  "updatedAt": {
    "$date": "2024-09-27T00:02:47.008Z"
  },
  "user_id": "65c5189673c8cfe604eebb1a"
},
{
  "_id": {
    "$oid": "645be4ac55f964209a3c7ce3"
  },
  "name": "DVSA Portsmouth Harbour",
  "status": "unknown",
  "latitude": "50.81302778",
  "longtitude": "-1.08838889",
  "createdAt": {
    "$date": "2023-05-10T18:38:36.982Z"
  },
  "updatedAt": {
    "$date": "2024-09-27T07:13:19.847Z"
  },
  "__v": 0,
  "user_id": "6456b12ab03217fd3b935d80"
},
{
  "_id": {
    "$oid": "645be51655f964209a3c7ce8"
  },
  "name": "DVSA Puddletown",
  "status": "unknown",
  "latitude": "50.74780556",
  "longtitude": "-2.35594444",
  "createdAt": {
    "$date": "2023-05-10T18:40:22.061Z"
  },
  "updatedAt": {
    "$date": "2024-09-25T13:49:36.150Z"
  },
  "__v": 0,
  "user_id": "6456b12ab03217fd3b935d80"
},
{
  "_id": {
    "$oid": "645be62855f964209a3c7cf7"
  },
  "name": "DVSA Ramsgate Harbour",
  "status": "inactive",
  "latitude": "51.32758333",
  "longtitude": "1.41102778",
  "createdAt": {
    "$date": "2023-05-10T18:44:56.356Z"
  },
  "updatedAt": {
    "$date": "2024-09-27T11:13:14.145Z"
  },
  "__v": 0,
  "user_id": "6456b12ab03217fd3b935d80"
},
{
  "_id": {
    "$oid": "645be69055f964209a3c7cfd"
  },
  "name": "DVSA Tormarton",
  "status": "unknown",
  "latitude": "51.49855556",
  "longtitude": "-2.35288889",
  "createdAt": {
    "$date": "2023-05-10T18:46:40.191Z"
  },
  "updatedAt": {
    "$date": "2024-09-26T11:35:54.936Z"
  },
  "__v": 0,
  "user_id": "6456b12ab03217fd3b935d80"
},
{
  "_id": {
    "$oid": "645bea4555f964209a3c7d27"
  },
  "name": "DVSA Ashford",
  "status": "active",
  "latitude": "51.13213889",
  "longtitude": "0.89394444",
  "createdAt": {
    "$date": "2023-05-10T19:02:29.332Z"
  },
  "updatedAt": {
    "$date": "2024-09-27T11:56:22.747Z"
  },
  "__v": 0,
  "user_id": "6456b12ab03217fd3b935d80"
},
{
  "_id": {
    "$oid": "645beba455f964209a3c7d3d"
  },
  "name": "DVSA Castle Kennedy / Stranraer",
  "status": "unknown",
  "latitude": "54.89527778",
  "longtitude": "-4.94622222",
  "createdAt": {
    "$date": "2023-05-10T19:08:20.141Z"
  },
  "updatedAt": {
    "$date": "2024-09-25T22:35:13.302Z"
  },
  "__v": 0,
  "user_id": "6456b12ab03217fd3b935d80"
},
{
  "_id": {
    "$oid": "645bec2655f964209a3c7d43"
  },
  "name": "DVSA Stirling",
  "status": "unknown",
  "latitude": "56.13452778",
  "longtitude": "-3.96905556",
  "createdAt": {
    "$date": "2023-05-10T19:10:30.371Z"
  },
  "updatedAt": {
    "$date": "2024-09-23T23:30:05.969Z"
  },
  "__v": 0,
  "user_id": "6456b12ab03217fd3b935d80"
},
{
  "_id": {
    "$oid": "645becaa55f964209a3c7d4c"
  },
  "name": "DVSA Bamber Bridge Preston",
  "status": "unknown",
  "latitude": "53.71780556",
  "longtitude": "-2.67330556",
  "createdAt": {
    "$date": "2023-05-10T19:12:42.299Z"
  },
  "updatedAt": {
    "$date": "2024-09-27T07:13:19.847Z"
  },
  "__v": 0,
  "user_id": "6456b12ab03217fd3b935d80"
},
{
  "_id": {
    "$oid": "645bedbe55f964209a3c7d5d"
  },
  "name": "DVSA Dartford Crossing",
  "status": "unknown",
  "latitude": "51.45425",
  "longtitude": "0.24288889",
  "createdAt": {
    "$date": "2023-05-10T19:17:18.163Z"
  },
  "updatedAt": {
    "$date": "2024-09-26T12:24:09.477Z"
  },
  "__v": 0,
  "user_id": "6456b12ab03217fd3b935d80"
},
{
  "_id": {
    "$oid": "645bee0655f964209a3c7d63"
  },
  "name": "DVSA Denham",
  "status": "unknown",
  "latitude": "51.56063889",
  "longtitude": "-0.493",
  "createdAt": {
    "$date": "2023-05-10T19:18:30.588Z"
  },
  "updatedAt": {
    "$date": "2024-09-25T22:35:13.302Z"
  },
  "__v": 0,
  "user_id": "6456b12ab03217fd3b935d80"
},
{
  "_id": {
    "$oid": "645bf19655f964209a3c7d82"
  },
  "name": "DVSA Sleaford",
  "status": "unknown",
  "latitude": "53.01430556",
  "longtitude": "-0.434",
  "createdAt": {
    "$date": "2023-05-10T19:33:42.401Z"
  },
  "updatedAt": {
    "$date": "2024-09-27T09:36:39.195Z"
  },
  "__v": 0,
  "user_id": "6456b12ab03217fd3b935d80"
},
{
  "_id": {
    "$oid": "645bf30355f964209a3c7d97"
  },
  "name": "DVSA Ross-on-Wye",
  "status": "unknown",
  "latitude": "51.92502778",
  "longtitude": "-2.57772222",
  "createdAt": {
    "$date": "2023-05-10T19:39:47.689Z"
  },
  "updatedAt": {
    "$date": "2024-09-27T11:26:00.793Z"
  },
  "__v": 0,
  "user_id": "6456b12ab03217fd3b935d80"
},
{
  "_id": {
    "$oid": "645bf65755f964209a3c7dc4"
  },
  "name": "DVSA Bridge of Don",
  "status": "unknown",
  "latitude": "57.1855625",
  "longtitude": "-2.0961875",
  "createdAt": {
    "$date": "2023-05-10T19:53:59.953Z"
  },
  "updatedAt": {
    "$date": "2024-09-25T13:49:37.864Z"
  },
  "__v": 0,
  "user_id": "6456b12ab03217fd3b935d80"
},
{
  "_id": {
    "$oid": "645bf6a455f964209a3c7dca"
  },
  "name": "DVSA Bicester",
  "status": "inactive",
  "latitude": "51.90196",
  "longtitude": "-1.139281",
  "createdAt": {
    "$date": "2023-05-10T19:55:16.737Z"
  },
  "updatedAt": {
    "$date": "2024-09-27T11:13:16.216Z"
  },
  "__v": 0,
  "user_id": "6456b12ab03217fd3b935d80"
},
{
  "_id": {
    "$oid": "645bf6d955f964209a3c7dcd"
  },
  "name": "DVSA Doncaster",
  "status": "unknown",
  "latitude": "53.5783641",
  "longtitude": "-1.1716996",
  "createdAt": {
    "$date": "2023-05-10T19:56:09.131Z"
  },
  "updatedAt": {
    "$date": "2024-09-26T08:46:25.351Z"
  },
  "__v": 0,
  "user_id": "6456b12ab03217fd3b935d80"
},
{
  "_id": {
    "$oid": "645d2a94a21496f99be3fc89"
  },
  "name": "DVSA Glenluce",
  "status": "unknown",
  "latitude": "54.888862",
  "longtitude": "-4.768068",
  "createdAt": {
    "$date": "2023-05-11T17:49:08.524Z"
  },
  "updatedAt": {
    "$date": "2024-09-27T11:09:48.850Z"
  },
  "__v": 0,
  "user_id": "6456b12ab03217fd3b935d80"
},
{
  "_id": {
    "$oid": "645bf26255f964209a3c7d91"
  },
  "name": "DVSA Hull Docks",
  "status": "unknown",
  "latitude": "53.74641667",
  "longtitude": "-0.28391667",
  "createdAt": {
    "$date": "2023-05-10T19:37:06.314Z"
  },
  "updatedAt": {
    "$date": "2024-09-26T19:03:49.400Z"
  },
  "__v": 0,
  "user_id": "6456b12ab03217fd3b935d80"
},
{
  "_id": {
    "$oid": "645bf32355f964209a3c7d9a"
  },
  "name": "DVSA Altrincham M56 j7 A56",
  "status": "unknown",
  "latitude": "53.36897222",
  "longtitude": "-2.38641667",
  "createdAt": {
    "$date": "2023-05-10T19:40:19.973Z"
  },
  "updatedAt": {
    "$date": "2024-09-26T19:25:03.746Z"
  },
  "__v": 0,
  "user_id": "6456b12ab03217fd3b935d80"
},
{
  "_id": {
    "$oid": "645bf35055f964209a3c7d9d"
  },
  "name": "DVSA Rosyth Port",
  "status": "unknown",
  "latitude": "56.02430556",
  "longtitude": "-3.43794444",
  "createdAt": {
    "$date": "2023-05-10T19:41:04.948Z"
  },
  "updatedAt": {
    "$date": "2024-09-27T11:09:48.377Z"
  },
  "__v": 0,
  "user_id": "6456b12ab03217fd3b935d80"
},
{
  "_id": {
    "$oid": "645bf3b155f964209a3c7da0"
  },
  "name": "DVSA Sampford Peverell M5 j27",
  "status": "unknown",
  "latitude": "50.92386111",
  "longtitude": "-3.36594444",
  "createdAt": {
    "$date": "2023-05-10T19:42:41.258Z"
  },
  "updatedAt": {
    "$date": "2024-09-25T22:35:17.966Z"
  },
  "__v": 0,
  "user_id": "6456b12ab03217fd3b935d80"
},
{
  "_id": {
    "$oid": "645bf4c555f964209a3c7da9"
  },
  "name": "DVSA Saxondale / Bingham",
  "status": "unknown",
  "latitude": "52.94877778",
  "longtitude": "-0.9755",
  "createdAt": {
    "$date": "2023-05-10T19:47:17.503Z"
  },
  "updatedAt": {
    "$date": "2024-09-27T11:09:07.829Z"
  },
  "__v": 0,
  "user_id": "6456b12ab03217fd3b935d80"
},
{
  "_id": {
    "$oid": "645bf60855f964209a3c7dbe"
  },
  "name": "DVSA Kilmarnock",
  "status": "unknown",
  "latitude": "55.6164375",
  "longtitude": "-4.5084375",
  "createdAt": {
    "$date": "2023-05-10T19:52:40.408Z"
  },
  "updatedAt": {
    "$date": "2024-09-26T16:48:11.052Z"
  },
  "__v": 0,
  "user_id": "6456b12ab03217fd3b935d80"
},
{
  "_id": {
    "$oid": "645bf62c55f964209a3c7dc1"
  },
  "name": "DVSA Guilford",
  "status": "unknown",
  "latitude": "51.2593125",
  "longtitude": "-0.5646875",
  "createdAt": {
    "$date": "2023-05-10T19:53:16.910Z"
  },
  "updatedAt": {
    "$date": "2024-09-26T19:03:49.400Z"
  },
  "__v": 0,
  "user_id": "6456b12ab03217fd3b935d80"
},
{
  "_id": {
    "$oid": "6462001582ecafbb4686df67"
  },
  "name": "Tyne Tunnel ",
  "latitude": "54.987198",
  "longtitude": "-1.485176",
  "createdAt": {
    "$date": "2023-05-15T09:49:09.527Z"
  },
  "updatedAt": {
    "$date": "2024-09-26T10:17:33.595Z"
  },
  "__v": 0,
  "status": "unknown",
  "user_id": "6456b12ab03217fd3b935d80"
},
{
  "_id": {
    "$oid": "646b21d0a6799a1d2ba1b100"
  },
  "name": "Faversham / Brenley Corner M2 j7 ",
  "latitude": "51.301509",
  "longtitude": "0.925454",
  "createdAt": {
    "$date": "2023-05-22T08:03:28.601Z"
  },
  "updatedAt": {
    "$date": "2024-09-27T11:56:24.282Z"
  },
  "__v": 0,
  "status": "active",
  "user_id": "6456b12ab03217fd3b935d80"
},
{
  "_id": {
    "$oid": "646b2269a6799a1d2ba1b124"
  },
  "name": "Tibshelf Services southbound",
  "latitude": "53.138624",
  "longtitude": "-1.327516",
  "createdAt": {
    "$date": "2023-05-22T08:06:01.214Z"
  },
  "updatedAt": {
    "$date": "2024-09-27T11:13:18.103Z"
  },
  "__v": 0,
  "status": "inactive",
  "user_id": "6456b12ab03217fd3b935d80"
},
{
  "_id": {
    "$oid": "646b22a7a6799a1d2ba1b136"
  },
  "name": "Tibshelf Services northbound ",
  "latitude": "53.136478",
  "longtitude": "-1.333933",
  "createdAt": {
    "$date": "2023-05-22T08:07:03.874Z"
  },
  "updatedAt": {
    "$date": "2024-09-26T10:17:33.595Z"
  },
  "__v": 0,
  "status": "unknown",
  "user_id": "6456b12ab03217fd3b935d80"
},
{
  "_id": {
    "$oid": "646b55db0b23e78f9f1fba09"
  },
  "name": "Wall Island A5 Lichfield ",
  "latitude": "52.650711",
  "longtitude": "-1.835101",
  "createdAt": {
    "$date": "2023-05-22T11:45:31.784Z"
  },
  "updatedAt": {
    "$date": "2024-09-27T10:20:28.299Z"
  },
  "__v": 0,
  "status": "inactive",
  "user_id": "6456b12ab03217fd3b935d80"
},
{
  "_id": {
    "$oid": "647a72001086c9cda97136bd"
  },
  "name": "Sandbach services northbound",
  "latitude": "53.138744",
  "longtitude": "-2.337392",
  "createdAt": {
    "$date": "2023-06-02T22:49:36.908Z"
  },
  "updatedAt": {
    "$date": "2024-09-26T14:42:11.466Z"
  },
  "__v": 0,
  "status": "unknown",
  "user_id": "6456b12ab03217fd3b935d80"
},
{
  "_id": {
    "$oid": "647a72b01086c9cda9713a0b"
  },
  "name": "Sandbach services southbound ",
  "latitude": "53.140052",
  "longtitude": "-2.335933",
  "createdAt": {
    "$date": "2023-06-02T22:52:32.835Z"
  },
  "updatedAt": {
    "$date": "2024-09-27T11:56:26.072Z"
  },
  "__v": 0,
  "status": "active",
  "user_id": "6456b12ab03217fd3b935d80"
},
{
  "_id": {
    "$oid": "647b1ca3ef15fa848b4eb00e"
  },
  "name": "South Mimms Services",
  "latitude": "51.688562",
  "longtitude": "-0.225227",
  "createdAt": {
    "$date": "2023-06-03T10:57:39.470Z"
  },
  "updatedAt": {
    "$date": "2024-09-27T11:09:11.689Z"
  },
  "__v": 0,
  "status": "unknown",
  "user_id": "6456b12ab03217fd3b935d80"
},
{
  "_id": {
    "$oid": "647b241cef15fa848b4ed46d"
  },
  "name": "DVSA Woolpit A14",
  "latitude": "52.232002",
  "longtitude": "0.893915",
  "createdAt": {
    "$date": "2023-06-03T11:29:32.723Z"
  },
  "updatedAt": {
    "$date": "2024-09-25T17:47:48.070Z"
  },
  "__v": 0,
  "status": "unknown",
  "user_id": "6456b12ab03217fd3b935d80"
},
{
  "_id": {
    "$oid": "647ba5f8ef15fa848b53431a"
  },
  "name": "A5 Nesscliffe ",
  "latitude": "52.755906",
  "longtitude": "-2.891215",
  "createdAt": {
    "$date": "2023-06-03T20:43:36.137Z"
  },
  "updatedAt": {
    "$date": "2024-09-26T19:42:53.974Z"
  },
  "__v": 0,
  "status": "unknown",
  "user_id": "6456b12ab03217fd3b935d80"
},
{
  "_id": {
    "$oid": "647c6722a5f71aa2259debb3"
  },
  "name": "Watford Gap Services northbound ",
  "latitude": "52.307074",
  "longtitude": "-1.123647",
  "createdAt": {
    "$date": "2023-06-04T10:27:46.299Z"
  },
  "updatedAt": {
    "$date": "2024-09-26T22:09:12.938Z"
  },
  "__v": 0,
  "status": "unknown",
  "user_id": "6456b12ab03217fd3b935d80"
},
{
  "_id": {
    "$oid": "647c6765a5f71aa2259ded5c"
  },
  "name": "Watford Gap Services southbound ",
  "latitude": "52.306667",
  "longtitude": "-1.120132",
  "createdAt": {
    "$date": "2023-06-04T10:28:53.215Z"
  },
  "updatedAt": {
    "$date": "2024-09-26T11:36:04.154Z"
  },
  "__v": 0,
  "status": "unknown",
  "user_id": "6456b12ab03217fd3b935d80"
},
{
  "_id": {
    "$oid": "647d6785eab884e9d47608ab"
  },
  "name": "DVSA Rochdale M62 j20 ",
  "latitude": "53.585766",
  "longtitude": "-2.157544",
  "createdAt": {
    "$date": "2023-06-05T04:41:41.019Z"
  },
  "updatedAt": {
    "$date": "2024-09-26T19:03:51.614Z"
  },
  "__v": 0,
  "status": "unknown",
  "user_id": "6456b12ab03217fd3b935d80"
},
{
  "_id": {
    "$oid": "647d8b2feab884e9d4763ec9"
  },
  "name": "Doncaster Works Unit",
  "latitude": "53.519079",
  "longtitude": "-1.177644",
  "createdAt": {
    "$date": "2023-06-05T07:13:51.688Z"
  },
  "updatedAt": {
    "$date": "2024-09-27T11:13:20.014Z"
  },
  "__v": 0,
  "status": "inactive",
  "user_id": "6456b12ab03217fd3b935d80"
},
{
  "_id": {
    "$oid": "647d9c53eab884e9d4766ddf"
  },
  "name": "Rivington Services northbound",
  "latitude": "53.600623",
  "longtitude": "-2.575851",
  "createdAt": {
    "$date": "2023-06-05T08:26:59.141Z"
  },
  "updatedAt": {
    "$date": "2024-09-26T13:59:52.491Z"
  },
  "__v": 0,
  "status": "unknown",
  "user_id": "6456b12ab03217fd3b935d80"
},
{
  "_id": {
    "$oid": "647d9c86eab884e9d4766e8b"
  },
  "name": "Rivington Services southbound ",
  "latitude": "53.599489",
  "longtitude": "-2.571925",
  "createdAt": {
    "$date": "2023-06-05T08:27:50.771Z"
  },
  "updatedAt": {
    "$date": "2024-09-26T11:36:06.100Z"
  },
  "__v": 0,
  "status": "unknown",
  "user_id": "6456b12ab03217fd3b935d80"
},
{
  "_id": {
    "$oid": "647da08beab884e9d4767c1a"
  },
  "name": "Blackwall Tunnel northbound ",
  "latitude": "51.504183",
  "longtitude": "-0.004854",
  "createdAt": {
    "$date": "2023-06-05T08:44:59.283Z"
  },
  "updatedAt": {
    "$date": "2024-09-25T17:47:52.690Z"
  },
  "__v": 0,
  "status": "unknown",
  "user_id": "6456b12ab03217fd3b935d80"
},
{
  "_id": {
    "$oid": "647da0d4eab884e9d4767d4e"
  },
  "name": "Blackwall Tunnel southbound ",
  "latitude": "51.504699",
  "longtitude": "-0.000911",
  "createdAt": {
    "$date": "2023-06-05T08:46:12.174Z"
  },
  "updatedAt": {
    "$date": "2024-09-26T16:48:12.911Z"
  },
  "__v": 0,
  "status": "unknown",
  "user_id": "6456b12ab03217fd3b935d80"
},
{
  "_id": {
    "$oid": "647dc0b4eab884e9d4772242"
  },
  "name": "Kingsway Tunnel",
  "latitude": "53.412713",
  "longtitude": "-3.009015",
  "createdAt": {
    "$date": "2023-06-05T11:02:12.178Z"
  },
  "updatedAt": {
    "$date": "2024-09-25T16:31:59.984Z"
  },
  "__v": 0,
  "status": "unknown",
  "user_id": "6456b12ab03217fd3b935d80"
},
{
  "_id": {
    "$oid": "647dd617eab884e9d477c98c"
  },
  "name": "Newcastle Sandy Lane",
  "latitude": "55.048278",
  "longtitude": "-1.645002",
  "createdAt": {
    "$date": "2023-06-05T12:33:27.449Z"
  },
  "updatedAt": {
    "$date": "2024-09-26T15:40:13.722Z"
  },
  "__v": 0,
  "status": "unknown",
  "user_id": "6456b12ab03217fd3b935d80"
},
{
  "_id": {
    "$oid": "647e1196eab884e9d47a7827"
  },
  "name": "DVSA Plymouth / Tamar Bridge ",
  "latitude": "50.415855",
  "longtitude": "-4.175293",
  "createdAt": {
    "$date": "2023-06-05T16:47:18.208Z"
  },
  "updatedAt": {
    "$date": "2024-09-27T10:20:29.479Z"
  },
  "__v": 0,
  "status": "inactive",
  "user_id": "6456b12ab03217fd3b935d80"
},
{
  "_id": {
    "$oid": "647eb3bde6faf0fa86873fd1"
  },
  "name": "Eurotunnel UK side",
  "latitude": "51.097119",
  "longtitude": "1.120302",
  "createdAt": {
    "$date": "2023-06-06T04:19:09.512Z"
  },
  "updatedAt": {
    "$date": "2024-09-26T11:36:08.393Z"
  },
  "__v": 0,
  "status": "unknown",
  "user_id": "6456b12ab03217fd3b935d80"
},
{
  "_id": {
    "$oid": "647f15a4e6faf0fa868cd29f"
  },
  "name": "A1 Tuxford",
  "latitude": "53.230423",
  "longtitude": "-0.894288",
  "createdAt": {
    "$date": "2023-06-06T11:16:52.623Z"
  },
  "updatedAt": {
    "$date": "2024-09-27T09:36:40.878Z"
  },
  "__v": 0,
  "status": "unknown",
  "user_id": "6456b12ab03217fd3b935d80"
},
{
  "_id": {
    "$oid": "647f1a82e6faf0fa868d2d7d"
  },
  "name": "A1(M) j52 Catterick Interchange",
  "latitude": "54.379597",
  "longtitude": "-1.651685",
  "createdAt": {
    "$date": "2023-06-06T11:37:38.697Z"
  },
  "updatedAt": {
    "$date": "2024-09-26T23:37:08.787Z"
  },
  "__v": 0,
  "status": "unknown",
  "user_id": "6456b12ab03217fd3b935d80"
},
{
  "_id": {
    "$oid": "6480585c1ebb4130fd798286"
  },
  "name": "Sourton Cross Services / A30",
  "latitude": "50.707129",
  "longtitude": "-4.060942",
  "createdAt": {
    "$date": "2023-06-07T10:13:48.165Z"
  },
  "updatedAt": {
    "$date": "2024-09-26T16:48:14.468Z"
  },
  "__v": 0,
  "status": "unknown",
  "user_id": "6456b12ab03217fd3b935d80"
},
{
  "_id": {
    "$oid": "648059711ebb4130fd798784"
  },
  "name": "Vauxhall Bridge",
  "latitude": "51.487521",
  "longtitude": "-0.127218",
  "createdAt": {
    "$date": "2023-06-07T10:18:25.436Z"
  },
  "updatedAt": {
    "$date": "2024-09-24T07:40:16.672Z"
  },
  "__v": 0,
  "status": "unknown",
  "user_id": "6456b12ab03217fd3b935d80"
},
{
  "_id": {
    "$oid": "64805a2c1ebb4130fd798ae2"
  },
  "name": "A2 Blackheath Shooters Hill",
  "latitude": "51.471822",
  "longtitude": "0.000161",
  "createdAt": {
    "$date": "2023-06-07T10:21:32.928Z"
  },
  "updatedAt": {
    "$date": "2024-09-27T11:13:22.048Z"
  },
  "__v": 0,
  "status": "inactive",
  "user_id": "6456b12ab03217fd3b935d80"
},
{
  "_id": {
    "$oid": "64805c081ebb4130fd799402"
  },
  "name": "DVSA Purfleet",
  "latitude": "51.485815",
  "longtitude": "0.262872",
  "createdAt": {
    "$date": "2023-06-07T10:29:28.571Z"
  },
  "updatedAt": {
    "$date": "2024-09-27T10:20:29.796Z"
  },
  "__v": 0,
  "status": "inactive",
  "user_id": "6456b12ab03217fd3b935d80"
},
{
  "_id": {
    "$oid": "64805d221ebb4130fd79994b"
  },
  "name": "Derby Services A50",
  "latitude": "52.863640",
  "longtitude": "-1.563354",
  "createdAt": {
    "$date": "2023-06-07T10:34:10.499Z"
  },
  "updatedAt": {
    "$date": "2024-09-22T18:25:59.600Z"
  },
  "__v": 0,
  "status": "unknown",
  "user_id": "6456b12ab03217fd3b935d80"
},
{
  "_id": {
    "$oid": "6483025b70088b120e97b180"
  },
  "name": "Rothwell Truckstop ",
  "latitude": "52.415152",
  "longtitude": "-0.810281",
  "createdAt": {
    "$date": "2023-06-09T10:43:39.301Z"
  },
  "updatedAt": {
    "$date": "2024-09-26T10:17:35.406Z"
  },
  "__v": 0,
  "status": "unknown",
  "user_id": "6456b12ab03217fd3b935d80"
},
{
  "_id": {
    "$oid": "6483032870088b120e97b46c"
  },
  "name": "Crayford Council Depot",
  "latitude": "51.456237",
  "longtitude": "0.201810",
  "createdAt": {
    "$date": "2023-06-09T10:47:04.924Z"
  },
  "updatedAt": {
    "$date": "2024-09-26T14:42:13.953Z"
  },
  "__v": 0,
  "status": "unknown",
  "user_id": "6456b12ab03217fd3b935d80"
},
{
  "_id": {
    "$oid": "6483143d70088b120e97ffae"
  },
  "name": "M56 j6 westbound",
  "latitude": "53.360783",
  "longtitude": "-2.297074",
  "createdAt": {
    "$date": "2023-06-09T11:59:57.792Z"
  },
  "updatedAt": {
    "$date": "2024-09-26T11:36:11.353Z"
  },
  "__v": 0,
  "status": "unknown",
  "user_id": "6456b12ab03217fd3b935d80"
},
{
  "_id": {
    "$oid": "64842adc1e3c4c32b36b6c53"
  },
  "name": "Woodall Services southbound ",
  "latitude": "53.314928",
  "longtitude": "-1.280409",
  "createdAt": {
    "$date": "2023-06-10T07:48:44.218Z"
  },
  "updatedAt": {
    "$date": "2024-09-24T14:25:27.741Z"
  },
  "__v": 0,
  "status": "unknown",
  "user_id": "6456b12ab03217fd3b935d80"
},
{
  "_id": {
    "$oid": "64842b221e3c4c32b36b6cdb"
  },
  "name": "Woodall Services northbound ",
  "latitude": "53.316008",
  "longtitude": "-1.283878",
  "createdAt": {
    "$date": "2023-06-10T07:49:54.557Z"
  },